{"protocolSection":{"identificationModule":{"nctId":"NCT04166773","orgStudyIdInfo":{"id":"17361"},"secondaryIdInfos":[{"id":"I8F-MC-GPHR","type":"OTHER","domain":"Eli Lilly and Company"},{"id":"2019-001550-26","type":"EUDRACT_NUMBER"}],"organization":{"fullName":"Eli Lilly and Company","class":"INDUSTRY"},"briefTitle":"A Study of Tirzepatide (LY3298176) in Participants With Nonalcoholic Steatohepatitis (NASH)","officialTitle":"A Randomized, Double-Blind, Placebo-Controlled Phase 2 Study Comparing the Efficacy and Safety of Tirzepatide Versus Placebo in Patients With Nonalcoholic Steatohepatitis (NASH)","acronym":"SYNERGY-NASH"},"statusModule":{"statusVerifiedDate":"2025-01","overallStatus":"COMPLETED","expandedAccessInfo":{"hasExpandedAccess":false},"startDateStruct":{"date":"2019-11-19","type":"ACTUAL"},"primaryCompletionDateStruct":{"date":"2023-12-11","type":"ACTUAL"},"completionDateStruct":{"date":"2024-01-10","type":"ACTUAL"},"studyFirstSubmitDate":"2019-11-15","studyFirstSubmitQcDate":"2019-11-15","studyFirstPostDateStruct":{"date":"2019-11-18","type":"ACTUAL"},"resultsFirstSubmitDate":"2024-12-10","resultsFirstSubmitQcDate":"2025-01-22","resultsFirstPostDateStruct":{"date":"2025-01-24","type":"ACTUAL"},"lastUpdateSubmitDate":"2025-01-22","lastUpdatePostDateStruct":{"date":"2025-01-24","type":"ACTUAL"}},"sponsorCollaboratorsModule":{"responsibleParty":{"type":"SPONSOR"},"leadSponsor":{"name":"Eli Lilly and Company","class":"INDUSTRY"}},"oversightModule":{"oversightHasDmc":false,"isFdaRegulatedDrug":true,"isFdaRegulatedDevice":false},"descriptionModule":{"briefSummary":"The purpose of this study is to see if the study drug, tirzepatide administered once weekly, is safe and effective as a treatment for Nonalcoholic Steatohepatitis (NASH)."},"conditionsModule":{"conditions":["Nonalcoholic Steatohepatitis"]},"designModule":{"studyType":"INTERVENTIONAL","phases":["PHASE2"],"designInfo":{"allocation":"RANDOMIZED","interventionModel":"PARALLEL","primaryPurpose":"TREATMENT","maskingInfo":{"masking":"DOUBLE","whoMasked":["PARTICIPANT","INVESTIGATOR"]}},"enrollmentInfo":{"count":190,"type":"ACTUAL"}},"armsInterventionsModule":{"armGroups":[{"label":"5 mg Tirzepatide","type":"EXPERIMENTAL","description":"5 milligrams (mg) tirzepatide administered subcutaneously (SC) once a week.","interventionNames":["Drug: Tirzepatide"]},{"label":"10 mg Tirzepatide","type":"EXPERIMENTAL","description":"10 mg tirzepatide administered SC once a week.","interventionNames":["Drug: Tirzepatide"]},{"label":"15 mg Tirzepatide","type":"EXPERIMENTAL","description":"15 mg tirzepatide administered SC once a week.","interventionNames":["Drug: Tirzepatide"]},{"label":"Placebo","type":"PLACEBO_COMPARATOR","description":"Placebo administered SC once a week.","interventionNames":["Drug: Placebo"]}],"interventions":[{"type":"DRUG","name":"Tirzepatide","description":"Administered SC","armGroupLabels":["10 mg Tirzepatide","15 mg Tirzepatide","5 mg Tirzepatide"],"otherNames":["LY3298176"]},{"type":"DRUG","name":"Placebo","description":"Administered SC","armGroupLabels":["Placebo"]}]},"outcomesModule":{"primaryOutcomes":[{"measure":"Percentage of Participants With Absence of Nonalcoholic Steatohepatitis (NASH) With no Worsening of Fibrosis on Liver Histology","description":"NASH resolution is defined as the absence of fatty liver disease or simple steatosis without steatohepatitis; the absence of hepatocellular ballooning (nonalcoholic fatty liver disease (NAFLD) Activity Score (NAS) 0 for ballooning); with or without mild lobular inflammation (NAS 0 or 1 for inflammation); and any value for steatosis. No worsening of fibrosis is defined as no increase in fibrosis stage from baseline to Week 52.","timeFrame":"Week 52"}],"secondaryOutcomes":[{"measure":"Percentage of Participants With ≥1 Point Decrease in Fibrosis Stage With No Worsening of NASH on Liver Histology","description":"NAS was derived as the unweighted sum of steatosis (0 to 3), lobular inflammation (0 to 3), and hepatocellular ballooning (0 to 2) scores. The NAS ranges from 0-8 with the higher score indicating more aggressive disease. Evaluation of fibrosis stage was based on the nonalcoholic steatohepatitis clinical research network (NASH CRN) fibrosis staging system, which was scaled from 0 to 4 stages where, 0=None to 4=Cirrhosis. Participants were evaluated with the NASH CRN scoring system with ≥1-point reduction without worsening of NASH (defined as no increase in the NAS score).","timeFrame":"Week 52"},{"measure":"Percentage of Participants With ≥1 Point Increase in Fibrosis Stage on Liver Histology","description":"Participants were evaluated with the NASH CRN scoring system with ≥1 stage increase in fibrosis.","timeFrame":"Week 52"},{"measure":"Percentage of Participants That Achieve a ≥2 Point Decrease in NAFLD (Non-alcoholic Fatty Liver Disease) Activity Score (NAS) on Liver Histology, With ≥1 Point Reduction in at Least 2 NAS Components","description":"Hepatic histological improvement in NAS was defined as a decrease (improvement) in NAS by ≥ 2 with at least a 1-point reduction in at least 2 NAS components (lobular inflammation, hepatocellular ballooning or steatosis). The NAS was derived as the unweighted sum of steatosis (0 to 3), lobular inflammation (0 to 3), and hepatocellular ballooning (0 to 2) scores. The NAS ranges from 0-8, with the higher score indicating more aggressive disease.","timeFrame":"Week 52"},{"measure":"Mean Absolute Change From Baseline in Liver Fat Content by Magnetic Resonance Imaging - Proton Density Fat Fraction (MRI-PDFF)","description":"MRI-PDFF is an established method that enables quantification of fat content in the liver. The value of whole liver fat as assessed by MRI-PDFF is expressed in percentage (%) and ranges from 0 to 100% with higher values representing higher liver fat level. Least square (LS) mean was calculated using mixed model repeated measures (MMRM) model for post-baseline measures: Variable = Baseline + Diabetes Flag (DIABFL) + REGION1 + Treatment + Time + Treatment\\*Time (Type III sum of squares). Variance-Covariance structure (Change from Baseline) = Unstructured.","timeFrame":"Baseline to Week 52"},{"measure":"Mean Change From Baseline in Body Weight","description":"Change in body weight at the end of 52 weeks measured in kilogram (kg) using a calibrated scale. LS mean was calculated using MMRM model for post-baseline measures: Variable = Baseline + DIABFL + REGION1 + Treatment + Time + Treatment\\*Time (Type III sum of squares). Variance-Covariance structure (Change from Baseline) = Unstructured.","timeFrame":"Baseline to Week 52"}]},"eligibilityModule":{"eligibilityCriteria":"* Participants must have a body mass index (BMI) ≥27 kilograms per square meter (kg/m²) and ≤50 kg/m² with stable body weight for at least 3 months\n* Participants with or without type 2 diabetes mellitus (T2DM)\n\n  * If with T2DM, hemoglobin A1c (HbA1c) ≤9.5%\n* Participants must be willing to undergo baseline and endpoint liver biopsies\n* Participants must have histologic diagnosis of NASH with stage 2 or 3 fibrosis by liver biopsy\n* Participants must not have known or suspected alcohol abuse (\\>14 units/week for women and \\>21 units/week for men) or active substance abuse\n* Participants must not have evidence of cirrhosis or other forms of liver disease\n* Participants must not have heart attack, stroke, or hospitalization for congestive heart failure in the past 6 months\n* Participants must not have active cancer within the last 5 years\n* Participants must not have uncontrolled high blood pressure\n* Participants must not have renal impairment with estimated glomerular filtration rate (eGFR) \\<30 milliters/minute/1.73m²; for participants on metformin, eGFR \\<45 mL/min/1.73m²\n* Participants must not have a diagnosis of type 1 diabetes\n* Participants must not have a history of pancreatitis (acute or chronic)\n* Participants must not have calcitonin ≥35 nanograms per liter\n* Participant must not have family or personal history of multiple endocrine neoplasia type 2 or medullary thyroid carcinoma (family is defined as a first degree relative)\n* Female participants must not be pregnant, breast-feeding, or intend to become pregnant or of childbearing potential and not using adequate contraceptive method (adequate contraceptive measures as required by local regulation or practice)","healthyVolunteers":false,"sex":"ALL","minimumAge":"18 Years","maximumAge":"80 Years","stdAges":["ADULT","OLDER_ADULT"]},"contactsLocationsModule":{"overallOfficials":[{"name":"Call 1-877-CTLILLY (1-877-285-4559) or 1-317-615-4559 Mon - Fri 9 AM - 5 PM Eastern time (UTC/GMT - 5 hours, EST)","affiliation":"Eli Lilly and Company","role":"STUDY_DIRECTOR"}],"locations":[{"facility":"University of Alabama-The Kirklin Clinic","city":"Birmingham","state":"Alabama","zip":"35205","country":"United States","geoPoint":{"lat":33.52066,"lon":-86.80249}},{"facility":"Synexus Clinical Research US, Inc.","city":"Chandler","state":"Arizona","zip":"85224","country":"United States","geoPoint":{"lat":33.30616,"lon":-111.84125}},{"facility":"Fresno Clinical Research Center","city":"Fresno","state":"California","zip":"93720","country":"United States","geoPoint":{"lat":36.74773,"lon":-119.77237}},{"facility":"National Research Institute - Huntington Park","city":"Huntington Park","state":"California","zip":"90255","country":"United States","geoPoint":{"lat":33.98168,"lon":-118.22507}},{"facility":"UCSD - Altman Clinical and Translational Research Institute (ACTRI)","city":"La Jolla","state":"California","zip":"92037","country":"United States","geoPoint":{"lat":32.84727,"lon":-117.2742}},{"facility":"National Research Institute - Wilshire","city":"Los Angeles","state":"California","zip":"90057","country":"United States","geoPoint":{"lat":34.05223,"lon":-118.24368}},{"facility":"Catalina Research Institute, LLC","city":"Montclair","state":"California","zip":"91763","country":"United States","geoPoint":{"lat":34.07751,"lon":-117.68978}},{"facility":"Diabetes Medical Center of California","city":"Northridge","state":"California","zip":"91325","country":"United States","geoPoint":{"lat":34.22834,"lon":-118.53675}},{"facility":"Velocity Clinical Research, Panorama City","city":"Panorama City","state":"California","zip":"91402","country":"United States","geoPoint":{"lat":34.22473,"lon":-118.44981}},{"facility":"Inland Empire Clinical Trials, LLC","city":"Rialto","state":"California","zip":"92377","country":"United States","geoPoint":{"lat":34.1064,"lon":-117.37032}},{"facility":"Velocity Clinical Research, Santa Ana","city":"Santa Ana","state":"California","zip":"92704","country":"United States","geoPoint":{"lat":33.74557,"lon":-117.86783}},{"facility":"Excel Medical Clinical Trials","city":"Boca Raton","state":"Florida","zip":"33434","country":"United States","geoPoint":{"lat":26.35869,"lon":-80.0831}},{"facility":"Alliance for Multispecialty Research, LLC","city":"Coral Gables","state":"Florida","zip":"33134","country":"United States","geoPoint":{"lat":25.72149,"lon":-80.26838}},{"facility":"Research Centers of America ( Hollywood )","city":"Hollywood","state":"Florida","zip":"33024","country":"United States","geoPoint":{"lat":26.0112,"lon":-80.14949}},{"facility":"East Coast Institute for Research, LLC","city":"Jacksonville","state":"Florida","zip":"32204","country":"United States","geoPoint":{"lat":30.33218,"lon":-81.65565}},{"facility":"IHS Health Research","city":"Kissimmee","state":"Florida","zip":"34741","country":"United States","geoPoint":{"lat":28.30468,"lon":-81.41667}},{"facility":"Accel Research Sites - Maitland Clinical Research Unit","city":"Maitland","state":"Florida","zip":"32751","country":"United States","geoPoint":{"lat":28.62778,"lon":-81.36312}},{"facility":"Clinical Pharmacology of Miami","city":"Miami","state":"Florida","zip":"33014","country":"United States","geoPoint":{"lat":25.77427,"lon":-80.19366}},{"facility":"The Center for Digestive Health","city":"Orlando","state":"Florida","zip":"32803","country":"United States","geoPoint":{"lat":28.53834,"lon":-81.37924}},{"facility":"Synexus Clinical Research US, Inc.","city":"Orlando","state":"Florida","zip":"32806","country":"United States","geoPoint":{"lat":28.53834,"lon":-81.37924}},{"facility":"Synexus Clinical Research US, Inc.","city":"The Villages","state":"Florida","zip":"32162","country":"United States","geoPoint":{"lat":28.93408,"lon":-81.95994}},{"facility":"Synexus Clinical Research","city":"Chicago","state":"Illinois","zip":"60602","country":"United States","geoPoint":{"lat":41.85003,"lon":-87.65005}},{"facility":"Indiana University Health Hospital","city":"Indianapolis","state":"Indiana","zip":"46202","country":"United States","geoPoint":{"lat":39.76838,"lon":-86.15804}},{"facility":"Iowa Diabetes and Endocrinology Research Center","city":"West Des Moines","state":"Iowa","zip":"50265","country":"United States","geoPoint":{"lat":41.57721,"lon":-93.71133}},{"facility":"Cotton O'Neil Clinical Research Center","city":"Topeka","state":"Kansas","zip":"66606","country":"United States","geoPoint":{"lat":39.04833,"lon":-95.67804}},{"facility":"Alliance for Multispecialty Research, LLC","city":"Wichita","state":"Kansas","zip":"67207","country":"United States","geoPoint":{"lat":37.69224,"lon":-97.33754}},{"facility":"Tandem Clinical Research","city":"Marrero","state":"Louisiana","zip":"70072","country":"United States","geoPoint":{"lat":29.89937,"lon":-90.10035}},{"facility":"The National Diabetes & Obesity Research Institute","city":"Biloxi","state":"Mississippi","zip":"39532","country":"United States","geoPoint":{"lat":30.39603,"lon":-88.88531}},{"facility":"Southern Therapy and Advanced Research (STAR) LLC","city":"Jackson","state":"Mississippi","zip":"39216","country":"United States","geoPoint":{"lat":32.29876,"lon":-90.18481}},{"facility":"Buffalo Clinical and Translational Research Center","city":"Buffalo","state":"New York","zip":"14203","country":"United States","geoPoint":{"lat":42.88645,"lon":-78.87837}},{"facility":"NYU Langone Health","city":"New York","state":"New York","zip":"10016","country":"United States","geoPoint":{"lat":40.71427,"lon":-74.00597}},{"facility":"Icahn School of Medicine at Mount Sinai","city":"New York","state":"New York","zip":"10029","country":"United States","geoPoint":{"lat":40.71427,"lon":-74.00597}},{"facility":"Montefiore Medical Center","city":"The Bronx","state":"New York","zip":"10467","country":"United States","geoPoint":{"lat":40.84985,"lon":-73.86641}},{"facility":"Diabetes & Endocrinology Consultants, PC","city":"Morehead City","state":"North Carolina","zip":"28557","country":"United States","geoPoint":{"lat":34.72294,"lon":-76.72604}},{"facility":"Geisinger Medical Center","city":"Danville","state":"Pennsylvania","zip":"17822","country":"United States","geoPoint":{"lat":40.96342,"lon":-76.61273}},{"facility":"WR-Clinsearch, LLC","city":"Chattanooga","state":"Tennessee","zip":"37421","country":"United States","geoPoint":{"lat":35.04563,"lon":-85.30968}},{"facility":"Dallas Diabetes Research Center","city":"Dallas","state":"Texas","zip":"75230","country":"United States","geoPoint":{"lat":32.78306,"lon":-96.80667}},{"facility":"Radiant Research - Dallas North","city":"Dallas","state":"Texas","zip":"75231","country":"United States","geoPoint":{"lat":32.78306,"lon":-96.80667}},{"facility":"Liver Center of Texas, PLLC","city":"Dallas","state":"Texas","zip":"75234-7858","country":"United States","geoPoint":{"lat":32.78306,"lon":-96.80667}},{"facility":"Texoma Medical Center","city":"Denison","state":"Texas","zip":"75020","country":"United States","geoPoint":{"lat":33.75566,"lon":-96.53666}},{"facility":"Texas Diabetes & Endocrinology, P.A.","city":"Round Rock","state":"Texas","zip":"78681","country":"United States","geoPoint":{"lat":30.50826,"lon":-97.6789}},{"facility":"American Research Corporation at Texas Liver Institute","city":"San Antonio","state":"Texas","zip":"78215","country":"United States","geoPoint":{"lat":29.42412,"lon":-98.49363}},{"facility":"Synexus Clinical Research US, Inc.","city":"San Antonio","state":"Texas","zip":"78229","country":"United States","geoPoint":{"lat":29.42412,"lon":-98.49363}},{"facility":"Endeavor Clinical Trials","city":"San Antonio","state":"Texas","zip":"78240","country":"United States","geoPoint":{"lat":29.42412,"lon":-98.49363}},{"facility":"National Clinical Research, Inc","city":"Richmond","state":"Virginia","zip":"23294","country":"United States","geoPoint":{"lat":37.55376,"lon":-77.46026}},{"facility":"Virginia Commonwealth University (VCU) Medical Center","city":"Richmond","state":"Virginia","zip":"23298","country":"United States","geoPoint":{"lat":37.55376,"lon":-77.46026}},{"facility":"Harborview Medical Center/University of Washington","city":"Seattle","state":"Washington","zip":"98104","country":"United States","geoPoint":{"lat":47.60621,"lon":-122.33207}},{"facility":"Antwerp University Hospital","city":"Edegem","state":"Antwerpen","zip":"2650","country":"Belgium","geoPoint":{"lat":51.15662,"lon":4.44504}},{"facility":"UZ Brussel","city":"Brussels","state":"Bruxelles-Capitale, Région de","zip":"1090","country":"Belgium","geoPoint":{"lat":50.85045,"lon":4.34878}},{"facility":"UZ Gent","city":"Ghent","state":"Oost-Vlaanderen","zip":"9000","country":"Belgium","geoPoint":{"lat":51.05,"lon":3.71667}},{"facility":"UZ Leuven","city":"Leuven","state":"Vlaams-Brabant","zip":"3000","country":"Belgium","geoPoint":{"lat":50.87959,"lon":4.70093}},{"facility":"AZ Delta vzw","city":"Roeselare","state":"West-Vlaanderen","zip":"8800","country":"Belgium","geoPoint":{"lat":50.94653,"lon":3.12269}},{"facility":"CHU Bordeaux Haut-Leveque","city":"Pessac","state":"Aquitaine","zip":"33600","country":"France","geoPoint":{"lat":44.80565,"lon":-0.6324}},{"facility":"Centre Hospitalier Universitaire de Limoges - Hôpital Dupuytren","city":"Limoges","state":"Haute-Vienne","zip":"87042","country":"France","geoPoint":{"lat":45.83362,"lon":1.24759}},{"facility":"Centre Hospitalier Universitaire d'Angers","city":"Angers","state":"Maine-et-Loire","zip":"49933","country":"France","geoPoint":{"lat":47.47156,"lon":-0.55202}},{"facility":"Groupe Hospitalier Mutualiste Les Portes du Sud","city":"Vénissieux","state":"Rhône-Alpes","zip":"69200","country":"France","geoPoint":{"lat":45.69706,"lon":4.88593}},{"facility":"Centre Hospitalier Lyon Sud","city":"Pierre-Bénite","state":"Rhône","zip":"69494 Cédex","country":"France","geoPoint":{"lat":45.70359,"lon":4.82424}},{"facility":"Pitie Salpetriere University Hospital","city":"Paris","zip":"75013","country":"France","geoPoint":{"lat":48.85341,"lon":2.3488}},{"facility":"Hôpital Saint Antoine","city":"Paris","zip":"75571","country":"France","geoPoint":{"lat":48.85341,"lon":2.3488}},{"facility":"Sheba Medical Center","city":"Ramat Gan","state":"Central District","zip":"5265601","country":"Israel"},{"facility":"Hadassah Medical Center","city":"Jerusalem","state":"Jerusalem","zip":"9112001","country":"Israel","geoPoint":{"lat":31.76904,"lon":35.21633}},{"facility":"Shaare Zedek Medical Center","city":"Jerusalem","state":"Jerusalem","zip":"9778419","country":"Israel","geoPoint":{"lat":31.76904,"lon":35.21633}},{"facility":"Rambam Health Care Campus","city":"Haifa","state":"Northern District","zip":"3109601","country":"Israel"},{"facility":"Galilee Medical Center","city":"Nahariya","state":"Northern District","zip":"2210001","country":"Israel","geoPoint":{"lat":33.00892,"lon":35.09814}},{"facility":"Carmel Hospital","city":"Haifa","zip":"3436212","country":"Israel","geoPoint":{"lat":32.81303,"lon":34.99928}},{"facility":"A.O.U. Policlinico Paolo Giaccone","city":"Palermo","state":"Sicily","zip":"90127","country":"Italy","geoPoint":{"lat":38.1166,"lon":13.3636}},{"facility":"Azienda Ospedaliero Universitaria Ospedali Riuniti Di Foggia","city":"Foggia","zip":"71100","country":"Italy","geoPoint":{"lat":41.45845,"lon":15.55188}},{"facility":"Ospedale Santa Maria Goretti","city":"Latina","zip":"04100","country":"Italy","geoPoint":{"lat":41.46614,"lon":12.9043}},{"facility":"Fondazione Policlinico Universitario Agostino Gemelli","city":"Roma","zip":"00168","country":"Italy","geoPoint":{"lat":44.99364,"lon":11.10642}},{"facility":"Azienda Ospedaliero-Universitaria Città della Salute e della Scienza di Torino","city":"Torino","zip":"10126","country":"Italy","geoPoint":{"lat":44.88856,"lon":11.99138}},{"facility":"Aichi Medical University Hospital","city":"Nagakute-shi","state":"Aichi-ken","zip":"480-1195","country":"Japan"},{"facility":"JCHO Hokkaido Hospital","city":"Sapporo","state":"Hokkaido","zip":"062-8618","country":"Japan","geoPoint":{"lat":43.06667,"lon":141.35}},{"facility":"Yokohama City University Hospital","city":"Yokohama","state":"Kanagawa","zip":"236-0004","country":"Japan","geoPoint":{"lat":35.43333,"lon":139.65}},{"facility":"National Hospital Organization Yokohama Medical Center","city":"Yokohama","state":"Kanagawa","zip":"2458575","country":"Japan","geoPoint":{"lat":35.43333,"lon":139.65}},{"facility":"JADECOM Nara City Hospital","city":"Nara","state":"Nara","zip":"630-8305","country":"Japan","geoPoint":{"lat":34.68505,"lon":135.80485}},{"facility":"Hirakata kohsai Hospital","city":"Higashi-cho, Hirakata-city","state":"Osaka","zip":"573-0153","country":"Japan"},{"facility":"Osaka Saiseikai Suita hospital","city":"Suita","state":"Osaka","zip":"564-0013","country":"Japan","geoPoint":{"lat":34.76143,"lon":135.51567}},{"facility":"Shimane University Hospital","city":"Izumo","state":"Shimane","zip":"693-0021","country":"Japan","geoPoint":{"lat":35.36667,"lon":132.76667}},{"facility":"Tokyo Medical And Dental University Medical Hospital","city":"Bunkyō","state":"Tokyo","zip":"113-8519","country":"Japan"},{"facility":"Fukuiken Saiseikai Hospital","city":"Fukui","zip":"918-8503","country":"Japan","geoPoint":{"lat":34.84214,"lon":135.54836}},{"facility":"Gifu Municipal Hospital","city":"Gifu","zip":"500-8323","country":"Japan","geoPoint":{"lat":35.42291,"lon":136.76039}},{"facility":"Kumamoto Shinto General Hospital","city":"Kumamoto","zip":"862-8655","country":"Japan","geoPoint":{"lat":32.80589,"lon":130.69181}},{"facility":"University Hospital,Kyoto Prefectural University of Medicine","city":"Kyoto","zip":"602-8566","country":"Japan","geoPoint":{"lat":35.02107,"lon":135.75385}},{"facility":"Niigata University Medical & Dental Hospital","city":"Niigata","zip":"951-8520","country":"Japan","geoPoint":{"lat":37.92259,"lon":139.04125}},{"facility":"Saga University Hospital","city":"Saga","zip":"849-8501","country":"Japan","geoPoint":{"lat":33.23333,"lon":130.3}},{"facility":"Yamagata University Hospital","city":"Yamagata","zip":"990-9585","country":"Japan","geoPoint":{"lat":38.23333,"lon":140.36667}},{"facility":"Phylasis Clinicas Research","city":"Cuautitlan Izcalli","state":"Mexico City","zip":"54769","country":"Mexico"},{"facility":"Grupo Medico Camino Sc","city":"Mexico City","state":"Mexico City","zip":"3310","country":"Mexico","geoPoint":{"lat":19.42847,"lon":-99.12766}},{"facility":"Christus Muguerza Hospital Sur","city":"Monterrey","state":"Nuevo León","zip":"64988","country":"Mexico","geoPoint":{"lat":25.68435,"lon":-100.31721}},{"facility":"Centro de Investigación y Gastroenterología","city":"Cuauhtémoc","zip":"6700","country":"Mexico","geoPoint":{"lat":19.44506,"lon":-99.14612}},{"facility":"Synexus Polska Sp. z o.o. Oddzial w Warszawie","city":"Warsaw","state":"Masovian Voivodeship","zip":"02-672","country":"Poland","geoPoint":{"lat":52.22977,"lon":21.01178}},{"facility":"Synexus Polska Oddział w Lodzi","city":"Lodz","state":"Łódź Voivodeship","zip":"90-127","country":"Poland","geoPoint":{"lat":51.77058,"lon":19.47395}},{"facility":"Clínica Juaneda","city":"Palma de Mallorca","state":"Balears [Baleares]","zip":"7014","country":"Spain","geoPoint":{"lat":39.56939,"lon":2.65024}},{"facility":"Hospital Universitario Marqués de Valdecilla","city":"Santander","state":"Cantabria","zip":"39008","country":"Spain","geoPoint":{"lat":43.46472,"lon":-3.80444}},{"facility":"Hospital Universitario Ramón y Cajal","city":"Madrid","state":"Madrid, Comunidad de","zip":"28034","country":"Spain","geoPoint":{"lat":40.4165,"lon":-3.70256}},{"facility":"Instituto de Ciencias Médicas","city":"Alicante","zip":"3004","country":"Spain","geoPoint":{"lat":38.34517,"lon":-0.48149}},{"facility":"Hospital Universitario Puerta de Hierro Majadahonda","city":"Madrid","zip":"28222","country":"Spain","geoPoint":{"lat":40.4165,"lon":-3.70256}},{"facility":"Clínica nuevas Tecnologías en Diabetes y Endocrinología (NTDE)","city":"Seville","zip":"41003","country":"Spain","geoPoint":{"lat":37.38283,"lon":-5.97317}},{"facility":"Hospital Universitario Virgen Del Rocio","city":"Seville","zip":"41013","country":"Spain","geoPoint":{"lat":37.38283,"lon":-5.97317}},{"facility":"Queen Elizabeth Hospital Birmingham","city":"Birmingham","state":"England","zip":"B15 2TH","country":"United Kingdom","geoPoint":{"lat":52.48142,"lon":-1.89983}},{"facility":"Synexus North East Clinical Research Centre","city":"Hexham","state":"England","zip":"NE46 1QJ","country":"United Kingdom","geoPoint":{"lat":54.96986,"lon":-2.104}},{"facility":"Royal London Hospital","city":"London","state":"England","zip":"E1 1BB","country":"United Kingdom","geoPoint":{"lat":51.50853,"lon":-0.12574}},{"facility":"St. George's Hospital","city":"London","state":"England","zip":"SW17 0QT","country":"United Kingdom","geoPoint":{"lat":51.50853,"lon":-0.12574}},{"facility":"Synexus Clinical Research Centre - Lancashire","city":"Chorley","state":"Lancashire","zip":"PR7 7NA","country":"United Kingdom","geoPoint":{"lat":53.65,"lon":-2.61667}},{"facility":"King's College Hospital","city":"London","state":"London, City of","zip":"SE5 9RL","country":"United Kingdom","geoPoint":{"lat":51.50853,"lon":-0.12574}},{"facility":"Queen's Medical Centre, Nottingham University Hospitals","city":"Nottingham","state":"Nottinghamshire","zip":"NG7 2UH","country":"United Kingdom","geoPoint":{"lat":52.9536,"lon":-1.15047}},{"facility":"John Radcliffe Hospital","city":"Headington","state":"Oxford","zip":"OX3 9DU","country":"United Kingdom","geoPoint":{"lat":51.75737,"lon":-1.21974}},{"facility":"Synexus North Teesside Clinical Research Centre","city":"Stockton-on-Tees","state":"Stockton-on-Tees","zip":"TS19 8PE","country":"United Kingdom","geoPoint":{"lat":54.56848,"lon":-1.3187}},{"facility":"Imperial College London - St Mary's Hospital","city":"London","state":"Westminster","zip":"W2 1NY","country":"United Kingdom","geoPoint":{"lat":51.50853,"lon":-0.12574}},{"facility":"Synexus Midlands Clinical Research Centre","city":"Birmingham","zip":"B15 2SQ","country":"United Kingdom","geoPoint":{"lat":52.48142,"lon":-1.89983}},{"facility":"Aintree University Hospital NHS Foundation Trust","city":"Liverpool","zip":"L9 7AL","country":"United Kingdom","geoPoint":{"lat":53.41058,"lon":-2.97794}},{"facility":"Synexus Manchester Clinical Research Centre","city":"Manchester","zip":"M15 6SX","country":"United Kingdom","geoPoint":{"lat":53.48095,"lon":-2.23743}}]},"referencesModule":{"references":[{"pmid":"38856224","type":"DERIVED","citation":"Loomba R, Hartman ML, Lawitz EJ, Vuppalanchi R, Boursier J, Bugianesi E, Yoneda M, Behling C, Cummings OW, Tang Y, Brouwers B, Robins DA, Nikooie A, Bunck MC, Haupt A, Sanyal AJ; SYNERGY-NASH Investigators. Tirzepatide for Metabolic Dysfunction-Associated Steatohepatitis with Liver Fibrosis. N Engl J Med. 2024 Jul 25;391(4):299-310. doi: 10.1056/NEJMoa2401943. Epub 2024 Jun 8."}],"seeAlsoLinks":[{"label":"A Study of Tirzepatide (LY3298176) in Participants With Nonalcoholic Steatohepatitis (NASH)","url":"https://trials.lillytrialguide.com/en-US/trial/3lQTuBFU3GBu9vi4SAlDDp"}]},"ipdSharingStatementModule":{"ipdSharing":"YES","description":"Anonymized individual patient level data will be provided in a secure access environment upon approval of a research proposal and a signed data sharing agreement.","infoTypes":["STUDY_PROTOCOL","SAP","CSR"],"timeFrame":"Data are available 6 months after the primary publication and approval of the indication studied in the US and EU, whichever is later. Data will be indefinitely available for requesting.","accessCriteria":"A research proposal must be approved by an independent review panel and researchers must sign a data sharing agreement.","url":"http://vivli.org/"}},"resultsSection":{"participantFlowModule":{"groups":[{"id":"FG000","title":"5 Milligram (mg) Tirzepatide","description":"Participants received 5 mg tirzepatide administered subcutaneously (SC) once a week (QW) for 52 weeks \\[initially 2.5 mg tirzepatide SC QW for 4 weeks, then 5 mg tirzepatide SC QW from weeks 5-52\\]."},{"id":"FG001","title":"10 mg Tirzepatide","description":"Participants received 10 mg tirzepatide administered SC QW for 52 weeks \\[initially 2.5 mg tirzepatide SC QW for 4 weeks, then dose escalated to 5 mg, 7.5 mg, and 10 mg every 4 weeks until target dose (10 mg) was reached\\]."},{"id":"FG002","title":"15 mg Tirzepatide","description":"Participants received 15 mg tirzepatide administered SC QW for 52 weeks \\[initially 2.5 mg tirzepatide SC QW for 4 weeks, then dose escalated to 5 mg, 7.5 mg, 10 mg, 12.5 mg, and 15 mg every 4 weeks until target dose (15 mg) was reached\\]."},{"id":"FG003","title":"Placebo","description":"Participants received placebo administered SC QW for 52 weeks."}],"periods":[{"title":"Overall Study","milestones":[{"type":"STARTED","achievements":[{"groupId":"FG000","numSubjects":"47"},{"groupId":"FG001","numSubjects":"47"},{"groupId":"FG002","numSubjects":"48"},{"groupId":"FG003","numSubjects":"48"}]},{"type":"Received at Least One Dose of Study Drug","achievements":[{"groupId":"FG000","numSubjects":"47"},{"groupId":"FG001","numSubjects":"47"},{"groupId":"FG002","numSubjects":"48"},{"groupId":"FG003","numSubjects":"48"}]},{"type":"COMPLETED","achievements":[{"groupId":"FG000","numSubjects":"40"},{"groupId":"FG001","numSubjects":"44"},{"groupId":"FG002","numSubjects":"43"},{"groupId":"FG003","numSubjects":"38"}]},{"type":"NOT COMPLETED","achievements":[{"groupId":"FG000","numSubjects":"7"},{"groupId":"FG001","numSubjects":"3"},{"groupId":"FG002","numSubjects":"5"},{"groupId":"FG003","numSubjects":"10"}]}],"dropWithdraws":[{"type":"Adverse Event","reasons":[{"groupId":"FG000","numSubjects":"2"},{"groupId":"FG001","numSubjects":"0"},{"groupId":"FG002","numSubjects":"2"},{"groupId":"FG003","numSubjects":"1"}]},{"type":"Lost to Follow-up","reasons":[{"groupId":"FG000","numSubjects":"4"},{"groupId":"FG001","numSubjects":"2"},{"groupId":"FG002","numSubjects":"1"},{"groupId":"FG003","numSubjects":"3"}]},{"type":"Physician Decision","reasons":[{"groupId":"FG000","numSubjects":"0"},{"groupId":"FG001","numSubjects":"0"},{"groupId":"FG002","numSubjects":"0"},{"groupId":"FG003","numSubjects":"1"}]},{"type":"Withdrawal by Subject","reasons":[{"groupId":"FG000","numSubjects":"1"},{"groupId":"FG001","numSubjects":"1"},{"groupId":"FG002","numSubjects":"2"},{"groupId":"FG003","numSubjects":"5"}]}]}]},"baselineCharacteristicsModule":{"populationDescription":"All randomized participants.","groups":[{"id":"BG000","title":"5 mg Tirzepatide","description":"Participants received 5 mg tirzepatide administered SC QW for 52 weeks \\[initially 2.5 mg tirzepatide SC QW for 4 weeks, then 5 mg tirzepatide SC QW from weeks 5-52\\]."},{"id":"BG001","title":"10 mg Tirzepatide","description":"Participants received 10 mg tirzepatide administered SC QW for 52 weeks \\[initially 2.5 mg tirzepatide SC QW for 4 weeks, then dose escalated to 5 mg, 7.5 mg, and 10 mg every 4 weeks until target dose (10 mg) was reached\\]."},{"id":"BG002","title":"15 mg Tirzepatide","description":"Participants received 15 mg tirzepatide administered SC QW for 52 weeks \\[initially 2.5 mg tirzepatide SC QW for 4 weeks, then dose escalated to 5 mg, 7.5 mg, 10 mg, 12.5 mg, and 15 mg every 4 weeks until target dose (15 mg) was reached\\]."},{"id":"BG003","title":"Placebo","description":"Participants received placebo administered SC QW for 52 weeks."},{"id":"BG004","title":"Total","description":"Total of all reporting groups"}],"denoms":[{"units":"Participants","counts":[{"groupId":"BG000","value":"47"},{"groupId":"BG001","value":"47"},{"groupId":"BG002","value":"48"},{"groupId":"BG003","value":"48"},{"groupId":"BG004","value":"190"}]}],"measures":[{"title":"Age, Continuous","paramType":"MEAN","dispersionType":"STANDARD_DEVIATION","unitOfMeasure":"years","classes":[{"categories":[{"measurements":[{"groupId":"BG000","value":"55.00","spread":"11.62"},{"groupId":"BG001","value":"54.30","spread":"12.08"},{"groupId":"BG002","value":"54.90","spread":"10.02"},{"groupId":"BG003","value":"53.50","spread":"11.60"},{"groupId":"BG004","value":"54.40","spread":"11.28"}]}]}]},{"title":"Sex: Female, Male","paramType":"COUNT_OF_PARTICIPANTS","unitOfMeasure":"Participants","calculatePct":false,"classes":[{"categories":[{"title":"Female","measurements":[{"groupId":"BG000","value":"27"},{"groupId":"BG001","value":"26"},{"groupId":"BG002","value":"29"},{"groupId":"BG003","value":"27"},{"groupId":"BG004","value":"109"}]},{"title":"Male","measurements":[{"groupId":"BG000","value":"20"},{"groupId":"BG001","value":"21"},{"groupId":"BG002","value":"19"},{"groupId":"BG003","value":"21"},{"groupId":"BG004","value":"81"}]}]}]},{"title":"Ethnicity (NIH/OMB)","paramType":"COUNT_OF_PARTICIPANTS","unitOfMeasure":"Participants","calculatePct":false,"classes":[{"categories":[{"title":"Hispanic or Latino","measurements":[{"groupId":"BG000","value":"19"},{"groupId":"BG001","value":"15"},{"groupId":"BG002","value":"17"},{"groupId":"BG003","value":"18"},{"groupId":"BG004","value":"69"}]},{"title":"Not Hispanic or Latino","measurements":[{"groupId":"BG000","value":"21"},{"groupId":"BG001","value":"25"},{"groupId":"BG002","value":"27"},{"groupId":"BG003","value":"24"},{"groupId":"BG004","value":"97"}]},{"title":"Unknown or Not Reported","measurements":[{"groupId":"BG000","value":"7"},{"groupId":"BG001","value":"7"},{"groupId":"BG002","value":"4"},{"groupId":"BG003","value":"6"},{"groupId":"BG004","value":"24"}]}]}]},{"title":"Race (NIH/OMB)","paramType":"COUNT_OF_PARTICIPANTS","unitOfMeasure":"Participants","calculatePct":false,"classes":[{"categories":[{"title":"American Indian or Alaska Native","measurements":[{"groupId":"BG000","value":"1"},{"groupId":"BG001","value":"1"},{"groupId":"BG002","value":"1"},{"groupId":"BG003","value":"0"},{"groupId":"BG004","value":"3"}]},{"title":"Asian","measurements":[{"groupId":"BG000","value":"5"},{"groupId":"BG001","value":"6"},{"groupId":"BG002","value":"6"},{"groupId":"BG003","value":"5"},{"groupId":"BG004","value":"22"}]},{"title":"Native Hawaiian or Other Pacific Islander","measurements":[{"groupId":"BG000","value":"0"},{"groupId":"BG001","value":"0"},{"groupId":"BG002","value":"0"},{"groupId":"BG003","value":"0"},{"groupId":"BG004","value":"0"}]},{"title":"Black or African American","measurements":[{"groupId":"BG000","value":"0"},{"groupId":"BG001","value":"1"},{"groupId":"BG002","value":"0"},{"groupId":"BG003","value":"0"},{"groupId":"BG004","value":"1"}]},{"title":"White","measurements":[{"groupId":"BG000","value":"41"},{"groupId":"BG001","value":"39"},{"groupId":"BG002","value":"41"},{"groupId":"BG003","value":"43"},{"groupId":"BG004","value":"164"}]},{"title":"More than one race","measurements":[{"groupId":"BG000","value":"0"},{"groupId":"BG001","value":"0"},{"groupId":"BG002","value":"0"},{"groupId":"BG003","value":"0"},{"groupId":"BG004","value":"0"}]},{"title":"Unknown or Not Reported","measurements":[{"groupId":"BG000","value":"0"},{"groupId":"BG001","value":"0"},{"groupId":"BG002","value":"0"},{"groupId":"BG003","value":"0"},{"groupId":"BG004","value":"0"}]}]}]},{"title":"Region of Enrollment","paramType":"COUNT_OF_PARTICIPANTS","unitOfMeasure":"Participants","calculatePct":false,"classes":[{"title":"Belgium","categories":[{"measurements":[{"groupId":"BG000","value":"0"},{"groupId":"BG001","value":"0"},{"groupId":"BG002","value":"1"},{"groupId":"BG003","value":"0"},{"groupId":"BG004","value":"1"}]}]},{"title":"France","categories":[{"measurements":[{"groupId":"BG000","value":"7"},{"groupId":"BG001","value":"7"},{"groupId":"BG002","value":"2"},{"groupId":"BG003","value":"6"},{"groupId":"BG004","value":"22"}]}]},{"title":"Israel","categories":[{"measurements":[{"groupId":"BG000","value":"3"},{"groupId":"BG001","value":"2"},{"groupId":"BG002","value":"0"},{"groupId":"BG003","value":"0"},{"groupId":"BG004","value":"5"}]}]},{"title":"Italy","categories":[{"measurements":[{"groupId":"BG000","value":"1"},{"groupId":"BG001","value":"0"},{"groupId":"BG002","value":"2"},{"groupId":"BG003","value":"3"},{"groupId":"BG004","value":"6"}]}]},{"title":"Japan","categories":[{"measurements":[{"groupId":"BG000","value":"4"},{"groupId":"BG001","value":"4"},{"groupId":"BG002","value":"4"},{"groupId":"BG003","value":"4"},{"groupId":"BG004","value":"16"}]}]},{"title":"Mexico","categories":[{"measurements":[{"groupId":"BG000","value":"1"},{"groupId":"BG001","value":"3"},{"groupId":"BG002","value":"3"},{"groupId":"BG003","value":"3"},{"groupId":"BG004","value":"10"}]}]},{"title":"Poland","categories":[{"measurements":[{"groupId":"BG000","value":"1"},{"groupId":"BG001","value":"0"},{"groupId":"BG002","value":"0"},{"groupId":"BG003","value":"0"},{"groupId":"BG004","value":"1"}]}]},{"title":"Spain","categories":[{"measurements":[{"groupId":"BG000","value":"1"},{"groupId":"BG001","value":"0"},{"groupId":"BG002","value":"6"},{"groupId":"BG003","value":"1"},{"groupId":"BG004","value":"8"}]}]},{"title":"United Kingdom","categories":[{"measurements":[{"groupId":"BG000","value":"1"},{"groupId":"BG001","value":"5"},{"groupId":"BG002","value":"4"},{"groupId":"BG003","value":"4"},{"groupId":"BG004","value":"14"}]}]},{"title":"United States","categories":[{"measurements":[{"groupId":"BG000","value":"28"},{"groupId":"BG001","value":"26"},{"groupId":"BG002","value":"26"},{"groupId":"BG003","value":"27"},{"groupId":"BG004","value":"107"}]}]}]}]},"outcomeMeasuresModule":{"outcomeMeasures":[{"type":"PRIMARY","title":"Percentage of Participants With Absence of Nonalcoholic Steatohepatitis (NASH) With no Worsening of Fibrosis on Liver Histology","description":"NASH resolution is defined as the absence of fatty liver disease or simple steatosis without steatohepatitis; the absence of hepatocellular ballooning (nonalcoholic fatty liver disease (NAFLD) Activity Score (NAS) 0 for ballooning); with or without mild lobular inflammation (NAS 0 or 1 for inflammation); and any value for steatosis. No worsening of fibrosis is defined as no increase in fibrosis stage from baseline to Week 52.","populationDescription":"All randomized participants who received at least one dose of study drug with baseline and post-baseline values and had evaluable data for this outcome prior to treatment discontinuation.","reportingStatus":"POSTED","paramType":"NUMBER","unitOfMeasure":"Percentage of participants","timeFrame":"Week 52","groups":[{"id":"OG000","title":"5 mg Tirzepatide","description":"Participants received 5 mg tirzepatide administered SC QW for 52 weeks \\[initially 2.5 mg tirzepatide SC QW for 4 weeks, then 5 mg tirzepatide SC QW from weeks 5-52\\]."},{"id":"OG001","title":"10 mg Tirzepatide","description":"Participants received 10 mg tirzepatide administered SC QW for 52 weeks \\[initially 2.5 mg tirzepatide SC QW for 4 weeks, then dose escalated to 5 mg, 7.5 mg, and 10 mg every 4 weeks until target dose (10 mg) was reached\\]."},{"id":"OG002","title":"15 mg Tirzepatide","description":"Participants received 15 mg tirzepatide administered SC QW for 52 weeks \\[initially 2.5 mg tirzepatide SC QW for 4 weeks, then dose escalated to 5 mg, 7.5 mg, 10 mg, 12.5 mg, and 15 mg every 4 weeks until target dose (15 mg) was reached\\]."},{"id":"OG003","title":"Placebo","description":"Participants received placebo administered SC QW for 52 weeks."}],"denoms":[{"units":"Participants","counts":[{"groupId":"OG000","value":"39"},{"groupId":"OG001","value":"41"},{"groupId":"OG002","value":"40"},{"groupId":"OG003","value":"35"}]}],"classes":[{"categories":[{"measurements":[{"groupId":"OG000","value":"51.84"},{"groupId":"OG001","value":"63.13"},{"groupId":"OG002","value":"73.92"},{"groupId":"OG003","value":"12.62"}]}]}],"analyses":[{"groupIds":["OG000","OG003"],"nonInferiorityType":"SUPERIORITY","pValue":"<0.001","statisticalMethod":"Regression, Logistic","paramType":"Odds Ratio (OR)","paramValue":"7.45","ciPctValue":"95","ciNumSides":"TWO_SIDED","ciLowerLimit":"2.27","ciUpperLimit":"24.44","estimateComment":"Odds ratio, Confidence Interval (CI), and p-value for endpoint measures are from logistic regression model with baseline diabetes status, region, treatment as factors."},{"groupIds":["OG001","OG003"],"nonInferiorityType":"SUPERIORITY","pValue":"<0.001","statisticalMethod":"Regression, Logistic","paramType":"Odds Ratio (OR)","paramValue":"11.86","ciPctValue":"95","ciNumSides":"TWO_SIDED","ciLowerLimit":"3.59","ciUpperLimit":"39.11","estimateComment":"Odds ratio, CI, and p-value for endpoint measures are from logistic regression model with baseline diabetes status, region, treatment as factors."},{"groupIds":["OG002","OG003"],"nonInferiorityType":"SUPERIORITY","pValue":"<0.001","statisticalMethod":"Regression, Logistic","paramType":"Odds Ratio (OR)","paramValue":"19.63","ciPctValue":"95","ciNumSides":"TWO_SIDED","ciLowerLimit":"5.73","ciUpperLimit":"67.25","estimateComment":"Odds ratio, CI, and p-value for endpoint measures are from logistic regression model with baseline diabetes status, region, treatment as factors."}]},{"type":"SECONDARY","title":"Percentage of Participants With ≥1 Point Decrease in Fibrosis Stage With No Worsening of NASH on Liver Histology","description":"NAS was derived as the unweighted sum of steatosis (0 to 3), lobular inflammation (0 to 3), and hepatocellular ballooning (0 to 2) scores. The NAS ranges from 0-8 with the higher score indicating more aggressive disease. Evaluation of fibrosis stage was based on the nonalcoholic steatohepatitis clinical research network (NASH CRN) fibrosis staging system, which was scaled from 0 to 4 stages where, 0=None to 4=Cirrhosis. Participants were evaluated with the NASH CRN scoring system with ≥1-point reduction without worsening of NASH (defined as no increase in the NAS score).","populationDescription":"All randomized participants who received at least one dose of study drug with baseline and post-baseline values and had evaluable data for this outcome prior to treatment discontinuation.","reportingStatus":"POSTED","paramType":"NUMBER","unitOfMeasure":"Percentage of participants","timeFrame":"Week 52","groups":[{"id":"OG000","title":"5 mg Tirzepatide","description":"Participants received 5 mg tirzepatide administered SC QW for 52 weeks \\[initially 2.5 mg tirzepatide SC QW for 4 weeks then 5 mg tirzepatide SC QW from week 5-52\\]."},{"id":"OG001","title":"10 mg Tirzepatide","description":"Participants received 10 mg tirzepatide administered SC QW for 52 weeks \\[initially 2.5 mg tirzepatide SC QW for 4 weeks, then dose escalated to 5 mg, 7.5 mg, and 10 mg every 4 weeks until target dose (10 mg) was reached\\]."},{"id":"OG002","title":"15 mg Tirzepatide","description":"Participants received 15 mg tirzepatide administered SC QW for 52 weeks \\[initially 2.5 mg tirzepatide SC QW for 4 weeks, then dose escalated to 5 mg, 7.5 mg, 10 mg, 12.5 mg, and 15 mg every 4 weeks until target dose (15 mg) was reached\\]."},{"id":"OG003","title":"Placebo","description":"Participants received placebo administered SC QW for 52 weeks."}],"denoms":[{"units":"Participants","counts":[{"groupId":"OG000","value":"39"},{"groupId":"OG001","value":"41"},{"groupId":"OG002","value":"40"},{"groupId":"OG003","value":"35"}]}],"classes":[{"categories":[{"measurements":[{"groupId":"OG000","value":"59.21"},{"groupId":"OG001","value":"53.35"},{"groupId":"OG002","value":"54.3"},{"groupId":"OG003","value":"32.51"}]}]}],"analyses":[{"groupIds":["OG000","OG003"],"nonInferiorityType":"SUPERIORITY","pValue":"0.025","statisticalMethod":"Regression, Logistic","paramType":"Odds Ratio (OR)","paramValue":"3.01","ciPctValue":"95","ciNumSides":"TWO_SIDED","ciLowerLimit":"1.15","ciUpperLimit":"7.90","estimateComment":"Odds ratio, CI, and p-value for endpoint measures are from logistic regression model with baseline diabetes status, region, treatment as factors."},{"groupIds":["OG001","OG003"],"nonInferiorityType":"SUPERIORITY","pValue":"0.074","statisticalMethod":"Regression, Logistic","paramType":"Odds Ratio (OR)","paramValue":"2.37","ciPctValue":"95","ciNumSides":"TWO_SIDED","ciLowerLimit":"0.92","ciUpperLimit":"6.13","estimateComment":"Odds ratio, CI, and p-value for endpoint measures are from logistic regression model with baseline diabetes status, region, treatment as factors"},{"groupIds":["OG002","OG003"],"nonInferiorityType":"SUPERIORITY","pValue":"0.063","statisticalMethod":"Regression, Logistic","paramType":"Odds Ratio (OR)","paramValue":"2.47","ciPctValue":"95","ciNumSides":"TWO_SIDED","ciLowerLimit":"0.95","ciUpperLimit":"6.40","estimateComment":"Odds ratio, CI, and p-value for endpoint measures are from logistic regression model with baseline diabetes status, region, treatment as factors."}]},{"type":"SECONDARY","title":"Percentage of Participants With ≥1 Point Increase in Fibrosis Stage on Liver Histology","description":"Participants were evaluated with the NASH CRN scoring system with ≥1 stage increase in fibrosis.","populationDescription":"All randomized participants who received at least one dose of study drug with baseline and post-baseline values and had evaluable data for this outcome prior to treatment discontinuation.","reportingStatus":"POSTED","paramType":"NUMBER","unitOfMeasure":"Percentage of participants","timeFrame":"Week 52","groups":[{"id":"OG000","title":"5 mg Tirzepatide","description":"Participants received 5 mg tirzepatide administered SC QW for 52 weeks \\[initially 2.5 mg tirzepatide SC QW for 4 weeks, then 5 mg tirzepatide SC QW from weeks 5-52\\]."},{"id":"OG001","title":"10 mg Tirzepatide","description":"Participants received 10 mg tirzepatide administered SC QW for 52 weeks \\[initially 2.5 mg tirzepatide SC QW for 4 weeks, then dose escalated to 5 mg, 7.5 mg, and 10 mg every 4 weeks until target dose (10 mg) was reached\\]."},{"id":"OG002","title":"15 mg Tirzepatide","description":"Participants received 15 mg tirzepatide administered SC QW for 52 weeks \\[initially 2.5 mg tirzepatide SC QW for 4 weeks, then dose escalated to 5 mg, 7.5 mg, 10 mg, 12.5 mg, and 15 mg every 4 weeks until target dose (15 mg) was reached\\]."},{"id":"OG003","title":"Placebo","description":"Participants received placebo administered SC QW for 52 weeks."}],"denoms":[{"units":"Participants","counts":[{"groupId":"OG000","value":"39"},{"groupId":"OG001","value":"41"},{"groupId":"OG002","value":"40"},{"groupId":"OG003","value":"35"}]}],"classes":[{"categories":[{"measurements":[{"groupId":"OG000","value":"12.04"},{"groupId":"OG001","value":"9.81"},{"groupId":"OG002","value":"5.53"},{"groupId":"OG003","value":"13.03"}]}]}],"analyses":[{"groupIds":["OG000","OG003"],"nonInferiorityType":"SUPERIORITY","pValue":"0.893","statisticalMethod":"Regression, Logistic","paramType":"Odds Ratio (OR)","paramValue":"0.91","ciPctValue":"95","ciNumSides":"TWO_SIDED","ciLowerLimit":"0.25","ciUpperLimit":"3.40","estimateComment":"Odds ratio, CI, and p-value for endpoint measures are from logistic regression model with baseline diabetes status, region, treatment as factors."},{"groupIds":["OG001","OG003"],"nonInferiorityType":"SUPERIORITY","pValue":"0.647","statisticalMethod":"Regression, Logistic","paramType":"Odds Ratio (OR)","paramValue":"0.73","ciPctValue":"95","ciNumSides":"TWO_SIDED","ciLowerLimit":"0.18","ciUpperLimit":"2.87","estimateComment":"Odds ratio, CI, and p-value for endpoint measures are from logistic regression model with baseline diabetes status, region, treatment as factors."},{"groupIds":["OG002","OG003"],"nonInferiorityType":"SUPERIORITY","pValue":"0.246","statisticalMethod":"Regression, Logistic","paramType":"Odds Ratio (OR)","paramValue":"0.39","ciPctValue":"95","ciNumSides":"TWO_SIDED","ciLowerLimit":"0.08","ciUpperLimit":"1.91","estimateComment":"Odds ratio, CI, and p-value for endpoint measures are from logistic regression model with baseline diabetes status, region, treatment as factors."}]},{"type":"SECONDARY","title":"Percentage of Participants That Achieve a ≥2 Point Decrease in NAFLD (Non-alcoholic Fatty Liver Disease) Activity Score (NAS) on Liver Histology, With ≥1 Point Reduction in at Least 2 NAS Components","description":"Hepatic histological improvement in NAS was defined as a decrease (improvement) in NAS by ≥ 2 with at least a 1-point reduction in at least 2 NAS components (lobular inflammation, hepatocellular ballooning or steatosis). The NAS was derived as the unweighted sum of steatosis (0 to 3), lobular inflammation (0 to 3), and hepatocellular ballooning (0 to 2) scores. The NAS ranges from 0-8, with the higher score indicating more aggressive disease.","populationDescription":"All randomized participants who received at least one dose of study drug with baseline and post-baseline values and had evaluable data for this outcome prior to treatment discontinuation.","reportingStatus":"POSTED","paramType":"NUMBER","unitOfMeasure":"Percentage of participants","timeFrame":"Week 52","groups":[{"id":"OG000","title":"5 mg Tirzepatide","description":"Participants received 5 mg tirzepatide administered SC QW for 52 weeks \\[initially 2.5 mg tirzepatide SC QW for 4 weeks, then 5 mg tirzepatide SC QW from weeks 5-52\\]."},{"id":"OG001","title":"10 mg Tirzepatide","description":"Participants received 10 mg tirzepatide administered SC QW for 52 weeks \\[initially 2.5 mg tirzepatide SC QW for 4 weeks, then dose escalated to 5 mg, 7.5 mg, and 10 mg every 4 weeks until target dose (10 mg) was reached\\]."},{"id":"OG002","title":"15 mg Tirzepatide","description":"Participants received 15 mg tirzepatide administered SC QW for 52 weeks \\[initially 2.5 mg tirzepatide SC QW for 4 weeks, then dose escalated to 5 mg, 7.5 mg, 10 mg, 12.5 mg, and 15 mg every 4 weeks until target dose (15 mg) was reached\\]."},{"id":"OG003","title":"Placebo","description":"Participants received placebo administered SC QW for 52 weeks."}],"denoms":[{"units":"Participants","counts":[{"groupId":"OG000","value":"39"},{"groupId":"OG001","value":"41"},{"groupId":"OG002","value":"40"},{"groupId":"OG003","value":"35"}]}],"classes":[{"categories":[{"measurements":[{"groupId":"OG000","value":"81.02"},{"groupId":"OG001","value":"86.55"},{"groupId":"OG002","value":"88.77"},{"groupId":"OG003","value":"38.09"}]}]}],"analyses":[{"groupIds":["OG000","OG003"],"nonInferiorityType":"SUPERIORITY","pValue":"<0.001","statisticalMethod":"Regression, Logistic","paramType":"Odds Ratio (OR)","paramValue":"6.94","ciPctValue":"95","ciNumSides":"TWO_SIDED","ciLowerLimit":"2.41","ciUpperLimit":"20.00","estimateComment":"Odds ratio, CI, and p-value for endpoint measures are from logistic regression model with baseline diabetes status, region, treatment as factors."},{"groupIds":["OG001","OG003"],"nonInferiorityType":"SUPERIORITY","pValue":"<0.001","statisticalMethod":"Regression, Logistic","paramType":"Odds Ratio (OR)","paramValue":"10.46","ciPctValue":"95","ciNumSides":"TWO_SIDED","ciLowerLimit":"3.36","ciUpperLimit":"32.61","estimateComment":"Odds ratio, CI, and p-value for endpoint measures are from logistic regression model with baseline diabetes status, region, treatment as factors."},{"groupIds":["OG002","OG003"],"nonInferiorityType":"SUPERIORITY","pValue":"<0.001","statisticalMethod":"Regression, Logistic","paramType":"Odds Ratio (OR)","paramValue":"12.85","ciPctValue":"95","ciNumSides":"TWO_SIDED","ciLowerLimit":"3.87","ciUpperLimit":"42.65","estimateComment":"Odds ratio, CI, and p-value for endpoint measures are from logistic regression model with baseline diabetes status, region, treatment as factors."}]},{"type":"SECONDARY","title":"Mean Absolute Change From Baseline in Liver Fat Content by Magnetic Resonance Imaging - Proton Density Fat Fraction (MRI-PDFF)","description":"MRI-PDFF is an established method that enables quantification of fat content in the liver. The value of whole liver fat as assessed by MRI-PDFF is expressed in percentage (%) and ranges from 0 to 100% with higher values representing higher liver fat level. Least square (LS) mean was calculated using mixed model repeated measures (MMRM) model for post-baseline measures: Variable = Baseline + Diabetes Flag (DIABFL) + REGION1 + Treatment + Time + Treatment\\*Time (Type III sum of squares). Variance-Covariance structure (Change from Baseline) = Unstructured.","populationDescription":"All randomized participants who received at least one dose of study drug with baseline and post-baseline values and had evaluable data for this outcome prior to treatment discontinuation.","reportingStatus":"POSTED","paramType":"LEAST_SQUARES_MEAN","dispersionType":"Standard Error","unitOfMeasure":"absolute percentage of liver fat","timeFrame":"Baseline to Week 52","groups":[{"id":"OG000","title":"5 mg Tirzepatide","description":"Participants received 5 mg tirzepatide administered SC QW for 52 weeks \\[initially 2.5 mg tirzepatide SC QW for 4 weeks, then 5 mg tirzepatide SC QW from weeks 5-52\\]."},{"id":"OG001","title":"10 mg Tirzepatide","description":"Participants received 10 mg tirzepatide administered SC QW for 52 weeks \\[initially 2.5 mg tirzepatide SC QW for 4 weeks, then dose escalated to 5 mg, 7.5 mg, and 10 mg every 4 weeks until target dose (10 mg) was reached\\]."},{"id":"OG002","title":"15 mg Tirzepatide","description":"Participants received 15 mg tirzepatide administered SC QW for 52 weeks \\[initially 2.5 mg tirzepatide SC QW for 4 weeks, then dose escalated to 5 mg, 7.5 mg, 10 mg, 12.5 mg, and 15 mg every 4 weeks until target dose (15 mg) was reached\\]."},{"id":"OG003","title":"Placebo","description":"Participants received placebo administered SC QW for 52 weeks."}],"denoms":[{"units":"Participants","counts":[{"groupId":"OG000","value":"28"},{"groupId":"OG001","value":"33"},{"groupId":"OG002","value":"32"},{"groupId":"OG003","value":"27"}]}],"classes":[{"categories":[{"measurements":[{"groupId":"OG000","value":"-10.12","spread":"1.165"},{"groupId":"OG001","value":"-10.15","spread":"1.071"},{"groupId":"OG002","value":"-11.34","spread":"1.107"},{"groupId":"OG003","value":"-1.31","spread":"1.142"}]}]}],"analyses":[{"groupIds":["OG000","OG003"],"nonInferiorityType":"SUPERIORITY","pValue":"<0.001","statisticalMethod":"Mixed Models Analysis","paramType":"LS Mean difference (Final Values)","paramValue":"-8.81","ciPctValue":"95","ciNumSides":"TWO_SIDED","ciLowerLimit":"-12.04","ciUpperLimit":"-5.58","dispersionType":"STANDARD_ERROR_OF_MEAN","dispersionValue":"1.632"},{"groupIds":["OG001","OG003"],"nonInferiorityType":"SUPERIORITY","pValue":"<0.001","statisticalMethod":"Mixed Models Analysis","paramType":"LS Mean difference (Final Values)","paramValue":"-8.83","ciPctValue":"95","ciNumSides":"TWO_SIDED","ciLowerLimit":"-11.93","ciUpperLimit":"-5.73","dispersionType":"STANDARD_ERROR_OF_MEAN","dispersionValue":"1.566"},{"groupIds":["OG002","OG003"],"nonInferiorityType":"SUPERIORITY","pValue":"<0.001","statisticalMethod":"Mixed Models Analysis","paramType":"LS Mean difference (Final Values)","paramValue":"-10.02","ciPctValue":"95","ciNumSides":"TWO_SIDED","ciLowerLimit":"-13.17","ciUpperLimit":"-6.87","dispersionType":"STANDARD_ERROR_OF_MEAN","dispersionValue":"1.591"}]},{"type":"SECONDARY","title":"Mean Change From Baseline in Body Weight","description":"Change in body weight at the end of 52 weeks measured in kilogram (kg) using a calibrated scale. LS mean was calculated using MMRM model for post-baseline measures: Variable = Baseline + DIABFL + REGION1 + Treatment + Time + Treatment\\*Time (Type III sum of squares). Variance-Covariance structure (Change from Baseline) = Unstructured.","populationDescription":"All randomized participants who received at least one dose of study drug with baseline and post-baseline values and had evaluable data for this outcome prior to treatment discontinuation.","reportingStatus":"POSTED","paramType":"LEAST_SQUARES_MEAN","dispersionType":"Standard Error","unitOfMeasure":"Kilogram (kg)","timeFrame":"Baseline to Week 52","groups":[{"id":"OG000","title":"5 mg Tirzepatide","description":"Participants received 5 mg tirzepatide administered SC QW for 52 weeks \\[initially 2.5 mg tirzepatide SC QW for 4 weeks, then 5 mg tirzepatide SC QW from week 5-52\\]."},{"id":"OG001","title":"10 mg Tirzepatide","description":"Participants received 10 mg tirzepatide administered SC QW for 52 weeks \\[initially 2.5 mg tirzepatide SC QW for 4 weeks, then dose escalated to 5 mg, 7.5 mg and 10 mg every 4 weeks until target dose (10 mg) was reached\\]."},{"id":"OG002","title":"15 mg Tirzepatide","description":"Participants received 15 mg tirzepatide administered SC QW for 52 weeks \\[initially 2.5 mg tirzepatide SC QW for 4 weeks, then dose escalated to 5 mg, 7.5 mg, 10 mg, 12.5 mg, and 15 mg every 4 weeks until target dose (15 mg) was reached\\]."},{"id":"OG003","title":"Placebo","description":"Participants received placebo administered SC QW for 52 weeks."}],"denoms":[{"units":"Participants","counts":[{"groupId":"OG000","value":"40"},{"groupId":"OG001","value":"42"},{"groupId":"OG002","value":"42"},{"groupId":"OG003","value":"37"}]}],"classes":[{"categories":[{"measurements":[{"groupId":"OG000","value":"-11.46","spread":"1.404"},{"groupId":"OG001","value":"-14.22","spread":"1.380"},{"groupId":"OG002","value":"-17.88","spread":"1.376"},{"groupId":"OG003","value":"-1.04","spread":"1.392"}]}]}],"analyses":[{"groupIds":["OG000","OG003"],"nonInferiorityType":"SUPERIORITY","pValue":"<0.001","statisticalMethod":"Mixed Models Analysis","paramType":"LS Mean difference (Final Values)","paramValue":"-10.42","ciPctValue":"95","ciNumSides":"TWO_SIDED","ciLowerLimit":"-14.32","ciUpperLimit":"-6.52","dispersionType":"STANDARD_ERROR_OF_MEAN","dispersionValue":"1.976"},{"groupIds":["OG001","OG003"],"nonInferiorityType":"SUPERIORITY","pValue":"<0.001","statisticalMethod":"Mixed Models Analysis","paramType":"LS Mean difference (Final Values)","paramValue":"-13.19","ciPctValue":"95","ciNumSides":"TWO_SIDED","ciLowerLimit":"-17.05","ciUpperLimit":"-9.32","dispersionType":"STANDARD_ERROR_OF_MEAN","dispersionValue":"1.960"},{"groupIds":["OG002","OG003"],"nonInferiorityType":"SUPERIORITY","pValue":"<0.001","statisticalMethod":"Mixed Models Analysis","paramType":"LS Mean difference (Final Values)","paramValue":"-16.84","ciPctValue":"95","ciNumSides":"TWO_SIDED","ciLowerLimit":"-20.71","ciUpperLimit":"-12.98","dispersionType":"STANDARD_ERROR_OF_MEAN","dispersionValue":"1.957"}]}]},"adverseEventsModule":{"frequencyThreshold":"0","timeFrame":"Baseline Up to Week 56","description":"All randomized participants who received at least one dose of study drug. Gender specific events only occurring in male or female participants have had the number of participants at Risk adjusted accordingly","eventGroups":[{"id":"EG000","title":"5 mg Tirzepatide","description":"Participants received 5 mg tirzepatide administered SC QW for 52 weeks \\[initially 2.5 mg tirzepatide SC QW for 4 weeks, then 5 mg tirzepatide SC QW from weeks 5-52\\].","deathsNumAffected":0,"deathsNumAtRisk":47,"seriousNumAffected":5,"seriousNumAtRisk":47,"otherNumAffected":43,"otherNumAtRisk":47},{"id":"EG001","title":"10 mg Tirzepatide","description":"Participants received 10 mg tirzepatide administered SC QW for 52 weeks \\[initially 2.5 mg tirzepatide SC QW for 4 weeks, then dose escalated to 5 mg, 7.5 mg, and 10 mg every 4 weeks until target dose (10 mg) was reached\\].","deathsNumAffected":0,"deathsNumAtRisk":47,"seriousNumAffected":4,"seriousNumAtRisk":47,"otherNumAffected":43,"otherNumAtRisk":47},{"id":"EG002","title":"15 mg Tirzepatide","description":"Participants received 15 mg tirzepatide administered SC QW for 52 weeks \\[initially 2.5 mg tirzepatide SC QW for 4 weeks, then dose escalated to 5 mg, 7.5 mg, 10 mg, 12.5 mg, and 15 mg every 4 weeks until target dose (15 mg) was reached\\].","deathsNumAffected":0,"deathsNumAtRisk":48,"seriousNumAffected":0,"seriousNumAtRisk":48,"otherNumAffected":44,"otherNumAtRisk":48},{"id":"EG003","title":"Placebo","description":"Participants received placebo administered SC QW for 52 weeks.","deathsNumAffected":0,"deathsNumAtRisk":48,"seriousNumAffected":3,"seriousNumAtRisk":48,"otherNumAffected":40,"otherNumAtRisk":48}],"seriousEvents":[{"term":"Developmental hip dysplasia","organSystem":"Congenital, familial and genetic disorders","sourceVocabulary":"MedDRA 26.1","assessmentType":"SYSTEMATIC_ASSESSMENT","stats":[{"groupId":"EG000","numEvents":1,"numAffected":1,"numAtRisk":47},{"groupId":"EG001","numEvents":0,"numAffected":0,"numAtRisk":47},{"groupId":"EG002","numEvents":0,"numAffected":0,"numAtRisk":48},{"groupId":"EG003","numEvents":0,"numAffected":0,"numAtRisk":48}]},{"term":"Large intestine polyp","organSystem":"Gastrointestinal disorders","sourceVocabulary":"MedDRA 26.1","assessmentType":"SYSTEMATIC_ASSESSMENT","stats":[{"groupId":"EG000","numEvents":0,"numAffected":0,"numAtRisk":47},{"groupId":"EG001","numEvents":1,"numAffected":1,"numAtRisk":47},{"groupId":"EG002","numEvents":0,"numAffected":0,"numAtRisk":48},{"groupId":"EG003","numEvents":0,"numAffected":0,"numAtRisk":48}]},{"term":"Pneumoperitoneum","organSystem":"Gastrointestinal disorders","sourceVocabulary":"MedDRA 26.1","assessmentType":"SYSTEMATIC_ASSESSMENT","stats":[{"groupId":"EG000","numEvents":0,"numAffected":0,"numAtRisk":47},{"groupId":"EG001","numEvents":1,"numAffected":1,"numAtRisk":47},{"groupId":"EG002","numEvents":0,"numAffected":0,"numAtRisk":48},{"groupId":"EG003","numEvents":0,"numAffected":0,"numAtRisk":48}]},{"term":"Rectal haemorrhage","organSystem":"Gastrointestinal disorders","sourceVocabulary":"MedDRA 26.1","assessmentType":"SYSTEMATIC_ASSESSMENT","stats":[{"groupId":"EG000","numEvents":0,"numAffected":0,"numAtRisk":47},{"groupId":"EG001","numEvents":0,"numAffected":0,"numAtRisk":47},{"groupId":"EG002","numEvents":0,"numAffected":0,"numAtRisk":48},{"groupId":"EG003","numEvents":3,"numAffected":1,"numAtRisk":48}]},{"term":"Umbilical hernia","organSystem":"Gastrointestinal disorders","sourceVocabulary":"MedDRA 26.1","assessmentType":"SYSTEMATIC_ASSESSMENT","stats":[{"groupId":"EG000","numEvents":0,"numAffected":0,"numAtRisk":47},{"groupId":"EG001","numEvents":1,"numAffected":1,"numAtRisk":47},{"groupId":"EG002","numEvents":0,"numAffected":0,"numAtRisk":48},{"groupId":"EG003","numEvents":0,"numAffected":0,"numAtRisk":48}]},{"term":"Cholecystitis","organSystem":"Hepatobiliary disorders","sourceVocabulary":"MedDRA 26.1","assessmentType":"SYSTEMATIC_ASSESSMENT","stats":[{"groupId":"EG000","numEvents":0,"numAffected":0,"numAtRisk":47},{"groupId":"EG001","numEvents":1,"numAffected":1,"numAtRisk":47},{"groupId":"EG002","numEvents":0,"numAffected":0,"numAtRisk":48},{"groupId":"EG003","numEvents":0,"numAffected":0,"numAtRisk":48}]},{"term":"Bacteraemia","organSystem":"Infections and infestations","sourceVocabulary":"MedDRA 26.1","assessmentType":"SYSTEMATIC_ASSESSMENT","stats":[{"groupId":"EG000","numEvents":0,"numAffected":0,"numAtRisk":47},{"groupId":"EG001","numEvents":0,"numAffected":0,"numAtRisk":47},{"groupId":"EG002","numEvents":0,"numAffected":0,"numAtRisk":48},{"groupId":"EG003","numEvents":1,"numAffected":1,"numAtRisk":48}]},{"term":"Covid-19 pneumonia","organSystem":"Infections and infestations","sourceVocabulary":"MedDRA 26.1","assessmentType":"SYSTEMATIC_ASSESSMENT","stats":[{"groupId":"EG000","numEvents":1,"numAffected":1,"numAtRisk":47},{"groupId":"EG001","numEvents":0,"numAffected":0,"numAtRisk":47},{"groupId":"EG002","numEvents":0,"numAffected":0,"numAtRisk":48},{"groupId":"EG003","numEvents":0,"numAffected":0,"numAtRisk":48}]},{"term":"Hypokalaemia","organSystem":"Metabolism and nutrition disorders","sourceVocabulary":"MedDRA 26.1","assessmentType":"SYSTEMATIC_ASSESSMENT","stats":[{"groupId":"EG000","numEvents":1,"numAffected":1,"numAtRisk":47},{"groupId":"EG001","numEvents":0,"numAffected":0,"numAtRisk":47},{"groupId":"EG002","numEvents":0,"numAffected":0,"numAtRisk":48},{"groupId":"EG003","numEvents":0,"numAffected":0,"numAtRisk":48}]},{"term":"Rhabdomyolysis","organSystem":"Musculoskeletal and connective tissue disorders","sourceVocabulary":"MedDRA 26.1","assessmentType":"SYSTEMATIC_ASSESSMENT","stats":[{"groupId":"EG000","numEvents":0,"numAffected":0,"numAtRisk":47},{"groupId":"EG001","numEvents":0,"numAffected":0,"numAtRisk":47},{"groupId":"EG002","numEvents":0,"numAffected":0,"numAtRisk":48},{"groupId":"EG003","numEvents":1,"numAffected":1,"numAtRisk":48}]},{"term":"Ovarian neoplasm","organSystem":"Neoplasms benign, malignant and unspecified (incl cysts and polyps)","sourceVocabulary":"MedDRA 26.1","assessmentType":"SYSTEMATIC_ASSESSMENT","stats":[{"groupId":"EG000","numEvents":0,"numAffected":0,"numAtRisk":27},{"groupId":"EG001","numEvents":0,"numAffected":0,"numAtRisk":26},{"groupId":"EG002","numEvents":0,"numAffected":0,"numAtRisk":29},{"groupId":"EG003","numEvents":1,"numAffected":1,"numAtRisk":27}]},{"term":"Transient ischaemic attack","organSystem":"Nervous system disorders","sourceVocabulary":"MedDRA 26.1","assessmentType":"SYSTEMATIC_ASSESSMENT","stats":[{"groupId":"EG000","numEvents":1,"numAffected":1,"numAtRisk":47},{"groupId":"EG001","numEvents":0,"numAffected":0,"numAtRisk":47},{"groupId":"EG002","numEvents":0,"numAffected":0,"numAtRisk":48},{"groupId":"EG003","numEvents":0,"numAffected":0,"numAtRisk":48}]},{"term":"Ureterolithiasis","organSystem":"Renal and urinary disorders","sourceVocabulary":"MedDRA 26.1","assessmentType":"SYSTEMATIC_ASSESSMENT","stats":[{"groupId":"EG000","numEvents":1,"numAffected":1,"numAtRisk":47},{"groupId":"EG001","numEvents":0,"numAffected":0,"numAtRisk":47},{"groupId":"EG002","numEvents":0,"numAffected":0,"numAtRisk":48},{"groupId":"EG003","numEvents":0,"numAffected":0,"numAtRisk":48}]},{"term":"Endometrial thickening","organSystem":"Reproductive system and breast disorders","sourceVocabulary":"MedDRA 26.1","assessmentType":"SYSTEMATIC_ASSESSMENT","stats":[{"groupId":"EG000","numEvents":0,"numAffected":0,"numAtRisk":27},{"groupId":"EG001","numEvents":0,"numAffected":0,"numAtRisk":26},{"groupId":"EG002","numEvents":0,"numAffected":0,"numAtRisk":29},{"groupId":"EG003","numEvents":1,"numAffected":1,"numAtRisk":27}]},{"term":"Phlebitis","organSystem":"Vascular disorders","sourceVocabulary":"MedDRA 26.1","assessmentType":"SYSTEMATIC_ASSESSMENT","stats":[{"groupId":"EG000","numEvents":0,"numAffected":0,"numAtRisk":47},{"groupId":"EG001","numEvents":0,"numAffected":0,"numAtRisk":47},{"groupId":"EG002","numEvents":0,"numAffected":0,"numAtRisk":48},{"groupId":"EG003","numEvents":1,"numAffected":1,"numAtRisk":48}]}],"otherEvents":[{"term":"Anaemia","organSystem":"Blood and lymphatic system disorders","sourceVocabulary":"MedDRA 26.1","assessmentType":"SYSTEMATIC_ASSESSMENT","stats":[{"groupId":"EG000","numEvents":1,"numAffected":1,"numAtRisk":47},{"groupId":"EG001","numEvents":0,"numAffected":0,"numAtRisk":47},{"groupId":"EG002","numEvents":0,"numAffected":0,"numAtRisk":48},{"groupId":"EG003","numEvents":1,"numAffected":1,"numAtRisk":48}]},{"term":"Lymphadenopathy","organSystem":"Blood and lymphatic system disorders","sourceVocabulary":"MedDRA 26.1","assessmentType":"SYSTEMATIC_ASSESSMENT","stats":[{"groupId":"EG000","numEvents":1,"numAffected":1,"numAtRisk":47},{"groupId":"EG001","numEvents":0,"numAffected":0,"numAtRisk":47},{"groupId":"EG002","numEvents":0,"numAffected":0,"numAtRisk":48},{"groupId":"EG003","numEvents":0,"numAffected":0,"numAtRisk":48}]},{"term":"Thrombocytopenia","organSystem":"Blood and lymphatic system disorders","sourceVocabulary":"MedDRA 26.1","assessmentType":"SYSTEMATIC_ASSESSMENT","stats":[{"groupId":"EG000","numEvents":0,"numAffected":0,"numAtRisk":47},{"groupId":"EG001","numEvents":0,"numAffected":0,"numAtRisk":47},{"groupId":"EG002","numEvents":0,"numAffected":0,"numAtRisk":48},{"groupId":"EG003","numEvents":1,"numAffected":1,"numAtRisk":48}]},{"term":"Atrial tachycardia","organSystem":"Cardiac disorders","sourceVocabulary":"MedDRA 26.1","assessmentType":"SYSTEMATIC_ASSESSMENT","stats":[{"groupId":"EG000","numEvents":1,"numAffected":1,"numAtRisk":47},{"groupId":"EG001","numEvents":0,"numAffected":0,"numAtRisk":47},{"groupId":"EG002","numEvents":0,"numAffected":0,"numAtRisk":48},{"groupId":"EG003","numEvents":0,"numAffected":0,"numAtRisk":48}]},{"term":"Bradycardia","organSystem":"Cardiac disorders","sourceVocabulary":"MedDRA 26.1","assessmentType":"SYSTEMATIC_ASSESSMENT","stats":[{"groupId":"EG000","numEvents":1,"numAffected":1,"numAtRisk":47},{"groupId":"EG001","numEvents":0,"numAffected":0,"numAtRisk":47},{"groupId":"EG002","numEvents":0,"numAffected":0,"numAtRisk":48},{"groupId":"EG003","numEvents":0,"numAffected":0,"numAtRisk":48}]},{"term":"Cardiac failure","organSystem":"Cardiac disorders","sourceVocabulary":"MedDRA 26.1","assessmentType":"SYSTEMATIC_ASSESSMENT","stats":[{"groupId":"EG000","numEvents":1,"numAffected":1,"numAtRisk":47},{"groupId":"EG001","numEvents":0,"numAffected":0,"numAtRisk":47},{"groupId":"EG002","numEvents":0,"numAffected":0,"numAtRisk":48},{"groupId":"EG003","numEvents":0,"numAffected":0,"numAtRisk":48}]},{"term":"Palpitations","organSystem":"Cardiac disorders","sourceVocabulary":"MedDRA 26.1","assessmentType":"SYSTEMATIC_ASSESSMENT","stats":[{"groupId":"EG000","numEvents":2,"numAffected":2,"numAtRisk":47},{"groupId":"EG001","numEvents":0,"numAffected":0,"numAtRisk":47},{"groupId":"EG002","numEvents":0,"numAffected":0,"numAtRisk":48},{"groupId":"EG003","numEvents":1,"numAffected":1,"numAtRisk":48}]},{"term":"Sinus bradycardia","organSystem":"Cardiac disorders","sourceVocabulary":"MedDRA 26.1","assessmentType":"SYSTEMATIC_ASSESSMENT","stats":[{"groupId":"EG000","numEvents":0,"numAffected":0,"numAtRisk":47},{"groupId":"EG001","numEvents":0,"numAffected":0,"numAtRisk":47},{"groupId":"EG002","numEvents":0,"numAffected":0,"numAtRisk":48},{"groupId":"EG003","numEvents":1,"numAffected":1,"numAtRisk":48}]},{"term":"Tachycardia","organSystem":"Cardiac disorders","sourceVocabulary":"MedDRA 26.1","assessmentType":"SYSTEMATIC_ASSESSMENT","stats":[{"groupId":"EG000","numEvents":1,"numAffected":1,"numAtRisk":47},{"groupId":"EG001","numEvents":1,"numAffected":1,"numAtRisk":47},{"groupId":"EG002","numEvents":0,"numAffected":0,"numAtRisk":48},{"groupId":"EG003","numEvents":0,"numAffected":0,"numAtRisk":48}]},{"term":"Gilbert's syndrome","organSystem":"Congenital, familial and genetic disorders","sourceVocabulary":"MedDRA 26.1","assessmentType":"SYSTEMATIC_ASSESSMENT","stats":[{"groupId":"EG000","numEvents":0,"numAffected":0,"numAtRisk":47},{"groupId":"EG001","numEvents":0,"numAffected":0,"numAtRisk":47},{"groupId":"EG002","numEvents":1,"numAffected":1,"numAtRisk":48},{"groupId":"EG003","numEvents":0,"numAffected":0,"numAtRisk":48}]},{"term":"Tinnitus","organSystem":"Ear and labyrinth disorders","sourceVocabulary":"MedDRA 26.1","assessmentType":"SYSTEMATIC_ASSESSMENT","stats":[{"groupId":"EG000","numEvents":0,"numAffected":0,"numAtRisk":47},{"groupId":"EG001","numEvents":1,"numAffected":1,"numAtRisk":47},{"groupId":"EG002","numEvents":0,"numAffected":0,"numAtRisk":48},{"groupId":"EG003","numEvents":0,"numAffected":0,"numAtRisk":48}]},{"term":"Vertigo","organSystem":"Ear and labyrinth disorders","sourceVocabulary":"MedDRA 26.1","assessmentType":"SYSTEMATIC_ASSESSMENT","stats":[{"groupId":"EG000","numEvents":1,"numAffected":1,"numAtRisk":47},{"groupId":"EG001","numEvents":0,"numAffected":0,"numAtRisk":47},{"groupId":"EG002","numEvents":0,"numAffected":0,"numAtRisk":48},{"groupId":"EG003","numEvents":0,"numAffected":0,"numAtRisk":48}]},{"term":"Hypothyroidism","organSystem":"Endocrine disorders","sourceVocabulary":"MedDRA 26.1","assessmentType":"SYSTEMATIC_ASSESSMENT","stats":[{"groupId":"EG000","numEvents":0,"numAffected":0,"numAtRisk":47},{"groupId":"EG001","numEvents":0,"numAffected":0,"numAtRisk":47},{"groupId":"EG002","numEvents":0,"numAffected":0,"numAtRisk":48},{"groupId":"EG003","numEvents":1,"numAffected":1,"numAtRisk":48}]},{"term":"Thyroid mass","organSystem":"Endocrine disorders","sourceVocabulary":"MedDRA 26.1","assessmentType":"SYSTEMATIC_ASSESSMENT","stats":[{"groupId":"EG000","numEvents":1,"numAffected":1,"numAtRisk":47},{"groupId":"EG001","numEvents":0,"numAffected":0,"numAtRisk":47},{"groupId":"EG002","numEvents":0,"numAffected":0,"numAtRisk":48},{"groupId":"EG003","numEvents":0,"numAffected":0,"numAtRisk":48}]},{"term":"Cataract","organSystem":"Eye disorders","sourceVocabulary":"MedDRA 26.1","assessmentType":"SYSTEMATIC_ASSESSMENT","stats":[{"groupId":"EG000","numEvents":0,"numAffected":0,"numAtRisk":47},{"groupId":"EG001","numEvents":0,"numAffected":0,"numAtRisk":47},{"groupId":"EG002","numEvents":0,"numAffected":0,"numAtRisk":48},{"groupId":"EG003","numEvents":3,"numAffected":2,"numAtRisk":48}]},{"term":"Conjunctivitis allergic","organSystem":"Eye disorders","sourceVocabulary":"MedDRA 26.1","assessmentType":"SYSTEMATIC_ASSESSMENT","stats":[{"groupId":"EG000","numEvents":0,"numAffected":0,"numAtRisk":47},{"groupId":"EG001","numEvents":1,"numAffected":1,"numAtRisk":47},{"groupId":"EG002","numEvents":0,"numAffected":0,"numAtRisk":48},{"groupId":"EG003","numEvents":2,"numAffected":1,"numAtRisk":48}]},{"term":"Eye pain","organSystem":"Eye disorders","sourceVocabulary":"MedDRA 26.1","assessmentType":"SYSTEMATIC_ASSESSMENT","stats":[{"groupId":"EG000","numEvents":0,"numAffected":0,"numAtRisk":47},{"groupId":"EG001","numEvents":0,"numAffected":0,"numAtRisk":47},{"groupId":"EG002","numEvents":0,"numAffected":0,"numAtRisk":48},{"groupId":"EG003","numEvents":1,"numAffected":1,"numAtRisk":48}]},{"term":"Meibomian gland dysfunction","organSystem":"Eye disorders","sourceVocabulary":"MedDRA 26.1","assessmentType":"SYSTEMATIC_ASSESSMENT","stats":[{"groupId":"EG000","numEvents":0,"numAffected":0,"numAtRisk":47},{"groupId":"EG001","numEvents":0,"numAffected":0,"numAtRisk":47},{"groupId":"EG002","numEvents":0,"numAffected":0,"numAtRisk":48},{"groupId":"EG003","numEvents":1,"numAffected":1,"numAtRisk":48}]},{"term":"Vision blurred","organSystem":"Eye disorders","sourceVocabulary":"MedDRA 26.1","assessmentType":"SYSTEMATIC_ASSESSMENT","stats":[{"groupId":"EG000","numEvents":1,"numAffected":1,"numAtRisk":47},{"groupId":"EG001","numEvents":0,"numAffected":0,"numAtRisk":47},{"groupId":"EG002","numEvents":0,"numAffected":0,"numAtRisk":48},{"groupId":"EG003","numEvents":0,"numAffected":0,"numAtRisk":48}]},{"term":"Visual acuity reduced","organSystem":"Eye disorders","sourceVocabulary":"MedDRA 26.1","assessmentType":"SYSTEMATIC_ASSESSMENT","stats":[{"groupId":"EG000","numEvents":0,"numAffected":0,"numAtRisk":47},{"groupId":"EG001","numEvents":0,"numAffected":0,"numAtRisk":47},{"groupId":"EG002","numEvents":1,"numAffected":1,"numAtRisk":48},{"groupId":"EG003","numEvents":0,"numAffected":0,"numAtRisk":48}]},{"term":"Abdominal discomfort","organSystem":"Gastrointestinal disorders","sourceVocabulary":"MedDRA 26.1","assessmentType":"SYSTEMATIC_ASSESSMENT","stats":[{"groupId":"EG000","numEvents":1,"numAffected":1,"numAtRisk":47},{"groupId":"EG001","numEvents":6,"numAffected":4,"numAtRisk":47},{"groupId":"EG002","numEvents":0,"numAffected":0,"numAtRisk":48},{"groupId":"EG003","numEvents":0,"numAffected":0,"numAtRisk":48}]},{"term":"Abdominal distension","organSystem":"Gastrointestinal disorders","sourceVocabulary":"MedDRA 26.1","assessmentType":"SYSTEMATIC_ASSESSMENT","stats":[{"groupId":"EG000","numEvents":3,"numAffected":3,"numAtRisk":47},{"groupId":"EG001","numEvents":3,"numAffected":3,"numAtRisk":47},{"groupId":"EG002","numEvents":8,"numAffected":6,"numAtRisk":48},{"groupId":"EG003","numEvents":4,"numAffected":4,"numAtRisk":48}]},{"term":"Abdominal pain","organSystem":"Gastrointestinal disorders","sourceVocabulary":"MedDRA 26.1","assessmentType":"SYSTEMATIC_ASSESSMENT","stats":[{"groupId":"EG000","numEvents":12,"numAffected":6,"numAtRisk":47},{"groupId":"EG001","numEvents":4,"numAffected":3,"numAtRisk":47},{"groupId":"EG002","numEvents":7,"numAffected":4,"numAtRisk":48},{"groupId":"EG003","numEvents":3,"numAffected":3,"numAtRisk":48}]},{"term":"Abdominal pain lower","organSystem":"Gastrointestinal disorders","sourceVocabulary":"MedDRA 26.1","assessmentType":"SYSTEMATIC_ASSESSMENT","stats":[{"groupId":"EG000","numEvents":0,"numAffected":0,"numAtRisk":47},{"groupId":"EG001","numEvents":0,"numAffected":0,"numAtRisk":47},{"groupId":"EG002","numEvents":0,"numAffected":0,"numAtRisk":48},{"groupId":"EG003","numEvents":2,"numAffected":2,"numAtRisk":48}]},{"term":"Abdominal pain upper","organSystem":"Gastrointestinal disorders","sourceVocabulary":"MedDRA 26.1","assessmentType":"SYSTEMATIC_ASSESSMENT","stats":[{"groupId":"EG000","numEvents":10,"numAffected":6,"numAtRisk":47},{"groupId":"EG001","numEvents":2,"numAffected":2,"numAtRisk":47},{"groupId":"EG002","numEvents":0,"numAffected":0,"numAtRisk":48},{"groupId":"EG003","numEvents":2,"numAffected":2,"numAtRisk":48}]},{"term":"Anal fissure","organSystem":"Gastrointestinal disorders","sourceVocabulary":"MedDRA 26.1","assessmentType":"SYSTEMATIC_ASSESSMENT","stats":[{"groupId":"EG000","numEvents":0,"numAffected":0,"numAtRisk":47},{"groupId":"EG001","numEvents":0,"numAffected":0,"numAtRisk":47},{"groupId":"EG002","numEvents":0,"numAffected":0,"numAtRisk":48},{"groupId":"EG003","numEvents":1,"numAffected":1,"numAtRisk":48}]},{"term":"Anal incontinence","organSystem":"Gastrointestinal disorders","sourceVocabulary":"MedDRA 26.1","assessmentType":"SYSTEMATIC_ASSESSMENT","stats":[{"groupId":"EG000","numEvents":0,"numAffected":0,"numAtRisk":47},{"groupId":"EG001","numEvents":0,"numAffected":0,"numAtRisk":47},{"groupId":"EG002","numEvents":0,"numAffected":0,"numAtRisk":48},{"groupId":"EG003","numEvents":1,"numAffected":1,"numAtRisk":48}]},{"term":"Bowel movement irregularity","organSystem":"Gastrointestinal disorders","sourceVocabulary":"MedDRA 26.1","assessmentType":"SYSTEMATIC_ASSESSMENT","stats":[{"groupId":"EG000","numEvents":0,"numAffected":0,"numAtRisk":47},{"groupId":"EG001","numEvents":0,"numAffected":0,"numAtRisk":47},{"groupId":"EG002","numEvents":0,"numAffected":0,"numAtRisk":48},{"groupId":"EG003","numEvents":1,"numAffected":1,"numAtRisk":48}]},{"term":"Breath odour","organSystem":"Gastrointestinal disorders","sourceVocabulary":"MedDRA 26.1","assessmentType":"SYSTEMATIC_ASSESSMENT","stats":[{"groupId":"EG000","numEvents":0,"numAffected":0,"numAtRisk":47},{"groupId":"EG001","numEvents":1,"numAffected":1,"numAtRisk":47},{"groupId":"EG002","numEvents":0,"numAffected":0,"numAtRisk":48},{"groupId":"EG003","numEvents":0,"numAffected":0,"numAtRisk":48}]},{"term":"Change of bowel habit","organSystem":"Gastrointestinal disorders","sourceVocabulary":"MedDRA 26.1","assessmentType":"SYSTEMATIC_ASSESSMENT","stats":[{"groupId":"EG000","numEvents":0,"numAffected":0,"numAtRisk":47},{"groupId":"EG001","numEvents":0,"numAffected":0,"numAtRisk":47},{"groupId":"EG002","numEvents":1,"numAffected":1,"numAtRisk":48},{"groupId":"EG003","numEvents":0,"numAffected":0,"numAtRisk":48}]},{"term":"Colonic angioectasia","organSystem":"Gastrointestinal disorders","sourceVocabulary":"MedDRA 26.1","assessmentType":"SYSTEMATIC_ASSESSMENT","stats":[{"groupId":"EG000","numEvents":0,"numAffected":0,"numAtRisk":47},{"groupId":"EG001","numEvents":0,"numAffected":0,"numAtRisk":47},{"groupId":"EG002","numEvents":1,"numAffected":1,"numAtRisk":48},{"groupId":"EG003","numEvents":0,"numAffected":0,"numAtRisk":48}]},{"term":"Constipation","organSystem":"Gastrointestinal disorders","sourceVocabulary":"MedDRA 26.1","assessmentType":"SYSTEMATIC_ASSESSMENT","stats":[{"groupId":"EG000","numEvents":12,"numAffected":11,"numAtRisk":47},{"groupId":"EG001","numEvents":12,"numAffected":9,"numAtRisk":47},{"groupId":"EG002","numEvents":8,"numAffected":7,"numAtRisk":48},{"groupId":"EG003","numEvents":4,"numAffected":3,"numAtRisk":48}]},{"term":"Diarrhoea","organSystem":"Gastrointestinal disorders","sourceVocabulary":"MedDRA 26.1","assessmentType":"SYSTEMATIC_ASSESSMENT","stats":[{"groupId":"EG000","numEvents":17,"numAffected":15,"numAtRisk":47},{"groupId":"EG001","numEvents":40,"numAffected":17,"numAtRisk":47},{"groupId":"EG002","numEvents":20,"numAffected":13,"numAtRisk":48},{"groupId":"EG003","numEvents":14,"numAffected":11,"numAtRisk":48}]},{"term":"Diverticulum","organSystem":"Gastrointestinal disorders","sourceVocabulary":"MedDRA 26.1","assessmentType":"SYSTEMATIC_ASSESSMENT","stats":[{"groupId":"EG000","numEvents":1,"numAffected":1,"numAtRisk":47},{"groupId":"EG001","numEvents":1,"numAffected":1,"numAtRisk":47},{"groupId":"EG002","numEvents":0,"numAffected":0,"numAtRisk":48},{"groupId":"EG003","numEvents":0,"numAffected":0,"numAtRisk":48}]},{"term":"Dry mouth","organSystem":"Gastrointestinal disorders","sourceVocabulary":"MedDRA 26.1","assessmentType":"SYSTEMATIC_ASSESSMENT","stats":[{"groupId":"EG000","numEvents":1,"numAffected":1,"numAtRisk":47},{"groupId":"EG001","numEvents":1,"numAffected":1,"numAtRisk":47},{"groupId":"EG002","numEvents":1,"numAffected":1,"numAtRisk":48},{"groupId":"EG003","numEvents":3,"numAffected":3,"numAtRisk":48}]},{"term":"Duodenitis","organSystem":"Gastrointestinal disorders","sourceVocabulary":"MedDRA 26.1","assessmentType":"SYSTEMATIC_ASSESSMENT","stats":[{"groupId":"EG000","numEvents":0,"numAffected":0,"numAtRisk":47},{"groupId":"EG001","numEvents":1,"numAffected":1,"numAtRisk":47},{"groupId":"EG002","numEvents":0,"numAffected":0,"numAtRisk":48},{"groupId":"EG003","numEvents":0,"numAffected":0,"numAtRisk":48}]},{"term":"Dyspepsia","organSystem":"Gastrointestinal disorders","sourceVocabulary":"MedDRA 26.1","assessmentType":"SYSTEMATIC_ASSESSMENT","stats":[{"groupId":"EG000","numEvents":3,"numAffected":2,"numAtRisk":47},{"groupId":"EG001","numEvents":11,"numAffected":8,"numAtRisk":47},{"groupId":"EG002","numEvents":2,"numAffected":2,"numAtRisk":48},{"groupId":"EG003","numEvents":2,"numAffected":2,"numAtRisk":48}]},{"term":"Dysphagia","organSystem":"Gastrointestinal disorders","sourceVocabulary":"MedDRA 26.1","assessmentType":"SYSTEMATIC_ASSESSMENT","stats":[{"groupId":"EG000","numEvents":0,"numAffected":0,"numAtRisk":47},{"groupId":"EG001","numEvents":0,"numAffected":0,"numAtRisk":47},{"groupId":"EG002","numEvents":1,"numAffected":1,"numAtRisk":48},{"groupId":"EG003","numEvents":0,"numAffected":0,"numAtRisk":48}]},{"term":"Eructation","organSystem":"Gastrointestinal disorders","sourceVocabulary":"MedDRA 26.1","assessmentType":"SYSTEMATIC_ASSESSMENT","stats":[{"groupId":"EG000","numEvents":1,"numAffected":1,"numAtRisk":47},{"groupId":"EG001","numEvents":2,"numAffected":2,"numAtRisk":47},{"groupId":"EG002","numEvents":5,"numAffected":4,"numAtRisk":48},{"groupId":"EG003","numEvents":0,"numAffected":0,"numAtRisk":48}]},{"term":"Flatulence","organSystem":"Gastrointestinal disorders","sourceVocabulary":"MedDRA 26.1","assessmentType":"SYSTEMATIC_ASSESSMENT","stats":[{"groupId":"EG000","numEvents":2,"numAffected":2,"numAtRisk":47},{"groupId":"EG001","numEvents":3,"numAffected":3,"numAtRisk":47},{"groupId":"EG002","numEvents":4,"numAffected":3,"numAtRisk":48},{"groupId":"EG003","numEvents":1,"numAffected":1,"numAtRisk":48}]},{"term":"Gastric ulcer","organSystem":"Gastrointestinal disorders","sourceVocabulary":"MedDRA 26.1","assessmentType":"SYSTEMATIC_ASSESSMENT","stats":[{"groupId":"EG000","numEvents":0,"numAffected":0,"numAtRisk":47},{"groupId":"EG001","numEvents":0,"numAffected":0,"numAtRisk":47},{"groupId":"EG002","numEvents":0,"numAffected":0,"numAtRisk":48},{"groupId":"EG003","numEvents":1,"numAffected":1,"numAtRisk":48}]},{"term":"Gastritis","organSystem":"Gastrointestinal disorders","sourceVocabulary":"MedDRA 26.1","assessmentType":"SYSTEMATIC_ASSESSMENT","stats":[{"groupId":"EG000","numEvents":0,"numAffected":0,"numAtRisk":47},{"groupId":"EG001","numEvents":0,"numAffected":0,"numAtRisk":47},{"groupId":"EG002","numEvents":1,"numAffected":1,"numAtRisk":48},{"groupId":"EG003","numEvents":2,"numAffected":2,"numAtRisk":48}]},{"term":"Gastrointestinal disorder","organSystem":"Gastrointestinal disorders","sourceVocabulary":"MedDRA 26.1","assessmentType":"SYSTEMATIC_ASSESSMENT","stats":[{"groupId":"EG000","numEvents":0,"numAffected":0,"numAtRisk":47},{"groupId":"EG001","numEvents":1,"numAffected":1,"numAtRisk":47},{"groupId":"EG002","numEvents":0,"numAffected":0,"numAtRisk":48},{"groupId":"EG003","numEvents":0,"numAffected":0,"numAtRisk":48}]},{"term":"Gastrointestinal haemorrhage","organSystem":"Gastrointestinal disorders","sourceVocabulary":"MedDRA 26.1","assessmentType":"SYSTEMATIC_ASSESSMENT","stats":[{"groupId":"EG000","numEvents":0,"numAffected":0,"numAtRisk":47},{"groupId":"EG001","numEvents":0,"numAffected":0,"numAtRisk":47},{"groupId":"EG002","numEvents":0,"numAffected":0,"numAtRisk":48},{"groupId":"EG003","numEvents":1,"numAffected":1,"numAtRisk":48}]},{"term":"Gastrointestinal pain","organSystem":"Gastrointestinal disorders","sourceVocabulary":"MedDRA 26.1","assessmentType":"SYSTEMATIC_ASSESSMENT","stats":[{"groupId":"EG000","numEvents":0,"numAffected":0,"numAtRisk":47},{"groupId":"EG001","numEvents":0,"numAffected":0,"numAtRisk":47},{"groupId":"EG002","numEvents":2,"numAffected":1,"numAtRisk":48},{"groupId":"EG003","numEvents":0,"numAffected":0,"numAtRisk":48}]},{"term":"Gastrooesophageal reflux disease","organSystem":"Gastrointestinal disorders","sourceVocabulary":"MedDRA 26.1","assessmentType":"SYSTEMATIC_ASSESSMENT","stats":[{"groupId":"EG000","numEvents":2,"numAffected":2,"numAtRisk":47},{"groupId":"EG001","numEvents":5,"numAffected":3,"numAtRisk":47},{"groupId":"EG002","numEvents":5,"numAffected":4,"numAtRisk":48},{"groupId":"EG003","numEvents":0,"numAffected":0,"numAtRisk":48}]},{"term":"Gingival bleeding","organSystem":"Gastrointestinal disorders","sourceVocabulary":"MedDRA 26.1","assessmentType":"SYSTEMATIC_ASSESSMENT","stats":[{"groupId":"EG000","numEvents":0,"numAffected":0,"numAtRisk":47},{"groupId":"EG001","numEvents":0,"numAffected":0,"numAtRisk":47},{"groupId":"EG002","numEvents":1,"numAffected":1,"numAtRisk":48},{"groupId":"EG003","numEvents":0,"numAffected":0,"numAtRisk":48}]},{"term":"Haemorrhoids","organSystem":"Gastrointestinal disorders","sourceVocabulary":"MedDRA 26.1","assessmentType":"SYSTEMATIC_ASSESSMENT","stats":[{"groupId":"EG000","numEvents":1,"numAffected":1,"numAtRisk":47},{"groupId":"EG001","numEvents":1,"numAffected":1,"numAtRisk":47},{"groupId":"EG002","numEvents":0,"numAffected":0,"numAtRisk":48},{"groupId":"EG003","numEvents":0,"numAffected":0,"numAtRisk":48}]},{"term":"Inguinal hernia","organSystem":"Gastrointestinal disorders","sourceVocabulary":"MedDRA 26.1","assessmentType":"SYSTEMATIC_ASSESSMENT","stats":[{"groupId":"EG000","numEvents":0,"numAffected":0,"numAtRisk":47},{"groupId":"EG001","numEvents":1,"numAffected":1,"numAtRisk":47},{"groupId":"EG002","numEvents":1,"numAffected":1,"numAtRisk":48},{"groupId":"EG003","numEvents":0,"numAffected":0,"numAtRisk":48}]},{"term":"Large intestine polyp","organSystem":"Gastrointestinal disorders","sourceVocabulary":"MedDRA 26.1","assessmentType":"SYSTEMATIC_ASSESSMENT","stats":[{"groupId":"EG000","numEvents":0,"numAffected":0,"numAtRisk":47},{"groupId":"EG001","numEvents":1,"numAffected":1,"numAtRisk":47},{"groupId":"EG002","numEvents":1,"numAffected":1,"numAtRisk":48},{"groupId":"EG003","numEvents":0,"numAffected":0,"numAtRisk":48}]},{"term":"Nausea","organSystem":"Gastrointestinal disorders","sourceVocabulary":"MedDRA 26.1","assessmentType":"SYSTEMATIC_ASSESSMENT","stats":[{"groupId":"EG000","numEvents":69,"numAffected":17,"numAtRisk":47},{"groupId":"EG001","numEvents":33,"numAffected":16,"numAtRisk":47},{"groupId":"EG002","numEvents":26,"numAffected":21,"numAtRisk":48},{"groupId":"EG003","numEvents":7,"numAffected":6,"numAtRisk":48}]},{"term":"Oesophagitis","organSystem":"Gastrointestinal disorders","sourceVocabulary":"MedDRA 26.1","assessmentType":"SYSTEMATIC_ASSESSMENT","stats":[{"groupId":"EG000","numEvents":0,"numAffected":0,"numAtRisk":47},{"groupId":"EG001","numEvents":2,"numAffected":2,"numAtRisk":47},{"groupId":"EG002","numEvents":1,"numAffected":1,"numAtRisk":48},{"groupId":"EG003","numEvents":0,"numAffected":0,"numAtRisk":48}]},{"term":"Pancreatitis","organSystem":"Gastrointestinal disorders","sourceVocabulary":"MedDRA 26.1","assessmentType":"SYSTEMATIC_ASSESSMENT","stats":[{"groupId":"EG000","numEvents":1,"numAffected":1,"numAtRisk":47},{"groupId":"EG001","numEvents":0,"numAffected":0,"numAtRisk":47},{"groupId":"EG002","numEvents":0,"numAffected":0,"numAtRisk":48},{"groupId":"EG003","numEvents":0,"numAffected":0,"numAtRisk":48}]},{"term":"Rectal haemorrhage","organSystem":"Gastrointestinal disorders","sourceVocabulary":"MedDRA 26.1","assessmentType":"SYSTEMATIC_ASSESSMENT","stats":[{"groupId":"EG000","numEvents":0,"numAffected":0,"numAtRisk":47},{"groupId":"EG001","numEvents":1,"numAffected":1,"numAtRisk":47},{"groupId":"EG002","numEvents":1,"numAffected":1,"numAtRisk":48},{"groupId":"EG003","numEvents":1,"numAffected":1,"numAtRisk":48}]},{"term":"Small intestinal obstruction","organSystem":"Gastrointestinal disorders","sourceVocabulary":"MedDRA 26.1","assessmentType":"SYSTEMATIC_ASSESSMENT","stats":[{"groupId":"EG000","numEvents":0,"numAffected":0,"numAtRisk":47},{"groupId":"EG001","numEvents":1,"numAffected":1,"numAtRisk":47},{"groupId":"EG002","numEvents":0,"numAffected":0,"numAtRisk":48},{"groupId":"EG003","numEvents":0,"numAffected":0,"numAtRisk":48}]},{"term":"Tooth loss","organSystem":"Gastrointestinal disorders","sourceVocabulary":"MedDRA 26.1","assessmentType":"SYSTEMATIC_ASSESSMENT","stats":[{"groupId":"EG000","numEvents":1,"numAffected":1,"numAtRisk":47},{"groupId":"EG001","numEvents":0,"numAffected":0,"numAtRisk":47},{"groupId":"EG002","numEvents":0,"numAffected":0,"numAtRisk":48},{"groupId":"EG003","numEvents":0,"numAffected":0,"numAtRisk":48}]},{"term":"Toothache","organSystem":"Gastrointestinal disorders","sourceVocabulary":"MedDRA 26.1","assessmentType":"SYSTEMATIC_ASSESSMENT","stats":[{"groupId":"EG000","numEvents":0,"numAffected":0,"numAtRisk":47},{"groupId":"EG001","numEvents":1,"numAffected":1,"numAtRisk":47},{"groupId":"EG002","numEvents":0,"numAffected":0,"numAtRisk":48},{"groupId":"EG003","numEvents":0,"numAffected":0,"numAtRisk":48}]},{"term":"Vomiting","organSystem":"Gastrointestinal disorders","sourceVocabulary":"MedDRA 26.1","assessmentType":"SYSTEMATIC_ASSESSMENT","stats":[{"groupId":"EG000","numEvents":3,"numAffected":3,"numAtRisk":47},{"groupId":"EG001","numEvents":5,"numAffected":3,"numAtRisk":47},{"groupId":"EG002","numEvents":14,"numAffected":7,"numAtRisk":48},{"groupId":"EG003","numEvents":1,"numAffected":1,"numAtRisk":48}]},{"term":"Asthenia","organSystem":"General disorders","sourceVocabulary":"MedDRA 26.1","assessmentType":"SYSTEMATIC_ASSESSMENT","stats":[{"groupId":"EG000","numEvents":3,"numAffected":3,"numAtRisk":47},{"groupId":"EG001","numEvents":6,"numAffected":4,"numAtRisk":47},{"groupId":"EG002","numEvents":0,"numAffected":0,"numAtRisk":48},{"groupId":"EG003","numEvents":2,"numAffected":2,"numAtRisk":48}]},{"term":"Chest discomfort","organSystem":"General disorders","sourceVocabulary":"MedDRA 26.1","assessmentType":"SYSTEMATIC_ASSESSMENT","stats":[{"groupId":"EG000","numEvents":0,"numAffected":0,"numAtRisk":47},{"groupId":"EG001","numEvents":0,"numAffected":0,"numAtRisk":47},{"groupId":"EG002","numEvents":0,"numAffected":0,"numAtRisk":48},{"groupId":"EG003","numEvents":1,"numAffected":1,"numAtRisk":48}]},{"term":"Discomfort","organSystem":"General disorders","sourceVocabulary":"MedDRA 26.1","assessmentType":"SYSTEMATIC_ASSESSMENT","stats":[{"groupId":"EG000","numEvents":0,"numAffected":0,"numAtRisk":47},{"groupId":"EG001","numEvents":0,"numAffected":0,"numAtRisk":47},{"groupId":"EG002","numEvents":4,"numAffected":1,"numAtRisk":48},{"groupId":"EG003","numEvents":0,"numAffected":0,"numAtRisk":48}]},{"term":"Energy increased","organSystem":"General disorders","sourceVocabulary":"MedDRA 26.1","assessmentType":"SYSTEMATIC_ASSESSMENT","stats":[{"groupId":"EG000","numEvents":0,"numAffected":0,"numAtRisk":47},{"groupId":"EG001","numEvents":1,"numAffected":1,"numAtRisk":47},{"groupId":"EG002","numEvents":0,"numAffected":0,"numAtRisk":48},{"groupId":"EG003","numEvents":0,"numAffected":0,"numAtRisk":48}]},{"term":"Fatigue","organSystem":"General disorders","sourceVocabulary":"MedDRA 26.1","assessmentType":"SYSTEMATIC_ASSESSMENT","stats":[{"groupId":"EG000","numEvents":5,"numAffected":4,"numAtRisk":47},{"groupId":"EG001","numEvents":5,"numAffected":4,"numAtRisk":47},{"groupId":"EG002","numEvents":5,"numAffected":5,"numAtRisk":48},{"groupId":"EG003","numEvents":4,"numAffected":3,"numAtRisk":48}]},{"term":"Injection site bruising","organSystem":"General disorders","sourceVocabulary":"MedDRA 26.1","assessmentType":"SYSTEMATIC_ASSESSMENT","stats":[{"groupId":"EG000","numEvents":0,"numAffected":0,"numAtRisk":47},{"groupId":"EG001","numEvents":1,"numAffected":1,"numAtRisk":47},{"groupId":"EG002","numEvents":0,"numAffected":0,"numAtRisk":48},{"groupId":"EG003","numEvents":0,"numAffected":0,"numAtRisk":48}]},{"term":"Injection site erythema","organSystem":"General disorders","sourceVocabulary":"MedDRA 26.1","assessmentType":"SYSTEMATIC_ASSESSMENT","stats":[{"groupId":"EG000","numEvents":1,"numAffected":1,"numAtRisk":47},{"groupId":"EG001","numEvents":1,"numAffected":1,"numAtRisk":47},{"groupId":"EG002","numEvents":2,"numAffected":1,"numAtRisk":48},{"groupId":"EG003","numEvents":0,"numAffected":0,"numAtRisk":48}]},{"term":"Injection site inflammation","organSystem":"General disorders","sourceVocabulary":"MedDRA 26.1","assessmentType":"SYSTEMATIC_ASSESSMENT","stats":[{"groupId":"EG000","numEvents":0,"numAffected":0,"numAtRisk":47},{"groupId":"EG001","numEvents":0,"numAffected":0,"numAtRisk":47},{"groupId":"EG002","numEvents":0,"numAffected":0,"numAtRisk":48},{"groupId":"EG003","numEvents":1,"numAffected":1,"numAtRisk":48}]},{"term":"Injection site pain","organSystem":"General disorders","sourceVocabulary":"MedDRA 26.1","assessmentType":"SYSTEMATIC_ASSESSMENT","stats":[{"groupId":"EG000","numEvents":1,"numAffected":1,"numAtRisk":47},{"groupId":"EG001","numEvents":0,"numAffected":0,"numAtRisk":47},{"groupId":"EG002","numEvents":0,"numAffected":0,"numAtRisk":48},{"groupId":"EG003","numEvents":0,"numAffected":0,"numAtRisk":48}]},{"term":"Injection site rash","organSystem":"General disorders","sourceVocabulary":"MedDRA 26.1","assessmentType":"SYSTEMATIC_ASSESSMENT","stats":[{"groupId":"EG000","numEvents":0,"numAffected":0,"numAtRisk":47},{"groupId":"EG001","numEvents":0,"numAffected":0,"numAtRisk":47},{"groupId":"EG002","numEvents":1,"numAffected":1,"numAtRisk":48},{"groupId":"EG003","numEvents":0,"numAffected":0,"numAtRisk":48}]},{"term":"Injection site reaction","organSystem":"General disorders","sourceVocabulary":"MedDRA 26.1","assessmentType":"SYSTEMATIC_ASSESSMENT","stats":[{"groupId":"EG000","numEvents":5,"numAffected":2,"numAtRisk":47},{"groupId":"EG001","numEvents":2,"numAffected":1,"numAtRisk":47},{"groupId":"EG002","numEvents":10,"numAffected":2,"numAtRisk":48},{"groupId":"EG003","numEvents":0,"numAffected":0,"numAtRisk":48}]},{"term":"Injection site swelling","organSystem":"General disorders","sourceVocabulary":"MedDRA 26.1","assessmentType":"SYSTEMATIC_ASSESSMENT","stats":[{"groupId":"EG000","numEvents":0,"numAffected":0,"numAtRisk":47},{"groupId":"EG001","numEvents":1,"numAffected":1,"numAtRisk":47},{"groupId":"EG002","numEvents":0,"numAffected":0,"numAtRisk":48},{"groupId":"EG003","numEvents":0,"numAffected":0,"numAtRisk":48}]},{"term":"Malaise","organSystem":"General disorders","sourceVocabulary":"MedDRA 26.1","assessmentType":"SYSTEMATIC_ASSESSMENT","stats":[{"groupId":"EG000","numEvents":2,"numAffected":2,"numAtRisk":47},{"groupId":"EG001","numEvents":0,"numAffected":0,"numAtRisk":47},{"groupId":"EG002","numEvents":1,"numAffected":1,"numAtRisk":48},{"groupId":"EG003","numEvents":1,"numAffected":1,"numAtRisk":48}]},{"term":"Non-cardiac chest pain","organSystem":"General disorders","sourceVocabulary":"MedDRA 26.1","assessmentType":"SYSTEMATIC_ASSESSMENT","stats":[{"groupId":"EG000","numEvents":1,"numAffected":1,"numAtRisk":47},{"groupId":"EG001","numEvents":0,"numAffected":0,"numAtRisk":47},{"groupId":"EG002","numEvents":0,"numAffected":0,"numAtRisk":48},{"groupId":"EG003","numEvents":0,"numAffected":0,"numAtRisk":48}]},{"term":"Oedema","organSystem":"General disorders","sourceVocabulary":"MedDRA 26.1","assessmentType":"SYSTEMATIC_ASSESSMENT","stats":[{"groupId":"EG000","numEvents":0,"numAffected":0,"numAtRisk":47},{"groupId":"EG001","numEvents":0,"numAffected":0,"numAtRisk":47},{"groupId":"EG002","numEvents":0,"numAffected":0,"numAtRisk":48},{"groupId":"EG003","numEvents":1,"numAffected":1,"numAtRisk":48}]},{"term":"Oedema peripheral","organSystem":"General disorders","sourceVocabulary":"MedDRA 26.1","assessmentType":"SYSTEMATIC_ASSESSMENT","stats":[{"groupId":"EG000","numEvents":1,"numAffected":1,"numAtRisk":47},{"groupId":"EG001","numEvents":1,"numAffected":1,"numAtRisk":47},{"groupId":"EG002","numEvents":0,"numAffected":0,"numAtRisk":48},{"groupId":"EG003","numEvents":0,"numAffected":0,"numAtRisk":48}]},{"term":"Pain","organSystem":"General disorders","sourceVocabulary":"MedDRA 26.1","assessmentType":"SYSTEMATIC_ASSESSMENT","stats":[{"groupId":"EG000","numEvents":2,"numAffected":2,"numAtRisk":47},{"groupId":"EG001","numEvents":1,"numAffected":1,"numAtRisk":47},{"groupId":"EG002","numEvents":0,"numAffected":0,"numAtRisk":48},{"groupId":"EG003","numEvents":3,"numAffected":2,"numAtRisk":48}]},{"term":"Pyrexia","organSystem":"General disorders","sourceVocabulary":"MedDRA 26.1","assessmentType":"SYSTEMATIC_ASSESSMENT","stats":[{"groupId":"EG000","numEvents":0,"numAffected":0,"numAtRisk":47},{"groupId":"EG001","numEvents":1,"numAffected":1,"numAtRisk":47},{"groupId":"EG002","numEvents":1,"numAffected":1,"numAtRisk":48},{"groupId":"EG003","numEvents":1,"numAffected":1,"numAtRisk":48}]},{"term":"Thirst","organSystem":"General disorders","sourceVocabulary":"MedDRA 26.1","assessmentType":"SYSTEMATIC_ASSESSMENT","stats":[{"groupId":"EG000","numEvents":0,"numAffected":0,"numAtRisk":47},{"groupId":"EG001","numEvents":1,"numAffected":1,"numAtRisk":47},{"groupId":"EG002","numEvents":0,"numAffected":0,"numAtRisk":48},{"groupId":"EG003","numEvents":0,"numAffected":0,"numAtRisk":48}]},{"term":"Vaccination site pain","organSystem":"General disorders","sourceVocabulary":"MedDRA 26.1","assessmentType":"SYSTEMATIC_ASSESSMENT","stats":[{"groupId":"EG000","numEvents":0,"numAffected":0,"numAtRisk":47},{"groupId":"EG001","numEvents":0,"numAffected":0,"numAtRisk":47},{"groupId":"EG002","numEvents":0,"numAffected":0,"numAtRisk":48},{"groupId":"EG003","numEvents":1,"numAffected":1,"numAtRisk":48}]},{"term":"Biliary colic","organSystem":"Hepatobiliary disorders","sourceVocabulary":"MedDRA 26.1","assessmentType":"SYSTEMATIC_ASSESSMENT","stats":[{"groupId":"EG000","numEvents":0,"numAffected":0,"numAtRisk":47},{"groupId":"EG001","numEvents":0,"numAffected":0,"numAtRisk":47},{"groupId":"EG002","numEvents":1,"numAffected":1,"numAtRisk":48},{"groupId":"EG003","numEvents":0,"numAffected":0,"numAtRisk":48}]},{"term":"Cholangitis","organSystem":"Hepatobiliary disorders","sourceVocabulary":"MedDRA 26.1","assessmentType":"SYSTEMATIC_ASSESSMENT","stats":[{"groupId":"EG000","numEvents":0,"numAffected":0,"numAtRisk":47},{"groupId":"EG001","numEvents":1,"numAffected":1,"numAtRisk":47},{"groupId":"EG002","numEvents":0,"numAffected":0,"numAtRisk":48},{"groupId":"EG003","numEvents":0,"numAffected":0,"numAtRisk":48}]},{"term":"Cholelithiasis","organSystem":"Hepatobiliary disorders","sourceVocabulary":"MedDRA 26.1","assessmentType":"SYSTEMATIC_ASSESSMENT","stats":[{"groupId":"EG000","numEvents":0,"numAffected":0,"numAtRisk":47},{"groupId":"EG001","numEvents":1,"numAffected":1,"numAtRisk":47},{"groupId":"EG002","numEvents":0,"numAffected":0,"numAtRisk":48},{"groupId":"EG003","numEvents":1,"numAffected":1,"numAtRisk":48}]},{"term":"Hepatic cirrhosis","organSystem":"Hepatobiliary disorders","sourceVocabulary":"MedDRA 26.1","assessmentType":"SYSTEMATIC_ASSESSMENT","stats":[{"groupId":"EG000","numEvents":2,"numAffected":2,"numAtRisk":47},{"groupId":"EG001","numEvents":2,"numAffected":2,"numAtRisk":47},{"groupId":"EG002","numEvents":0,"numAffected":0,"numAtRisk":48},{"groupId":"EG003","numEvents":1,"numAffected":1,"numAtRisk":48}]},{"term":"Hepatic fibrosis","organSystem":"Hepatobiliary disorders","sourceVocabulary":"MedDRA 26.1","assessmentType":"SYSTEMATIC_ASSESSMENT","stats":[{"groupId":"EG000","numEvents":1,"numAffected":1,"numAtRisk":47},{"groupId":"EG001","numEvents":0,"numAffected":0,"numAtRisk":47},{"groupId":"EG002","numEvents":0,"numAffected":0,"numAtRisk":48},{"groupId":"EG003","numEvents":1,"numAffected":1,"numAtRisk":48}]},{"term":"Hepatic haematoma","organSystem":"Hepatobiliary disorders","sourceVocabulary":"MedDRA 26.1","assessmentType":"SYSTEMATIC_ASSESSMENT","stats":[{"groupId":"EG000","numEvents":0,"numAffected":0,"numAtRisk":47},{"groupId":"EG001","numEvents":0,"numAffected":0,"numAtRisk":47},{"groupId":"EG002","numEvents":0,"numAffected":0,"numAtRisk":48},{"groupId":"EG003","numEvents":1,"numAffected":1,"numAtRisk":48}]},{"term":"Hypertransaminasaemia","organSystem":"Hepatobiliary disorders","sourceVocabulary":"MedDRA 26.1","assessmentType":"SYSTEMATIC_ASSESSMENT","stats":[{"groupId":"EG000","numEvents":0,"numAffected":0,"numAtRisk":47},{"groupId":"EG001","numEvents":0,"numAffected":0,"numAtRisk":47},{"groupId":"EG002","numEvents":0,"numAffected":0,"numAtRisk":48},{"groupId":"EG003","numEvents":1,"numAffected":1,"numAtRisk":48}]},{"term":"Drug hypersensitivity","organSystem":"Immune system disorders","sourceVocabulary":"MedDRA 26.1","assessmentType":"SYSTEMATIC_ASSESSMENT","stats":[{"groupId":"EG000","numEvents":1,"numAffected":1,"numAtRisk":47},{"groupId":"EG001","numEvents":0,"numAffected":0,"numAtRisk":47},{"groupId":"EG002","numEvents":0,"numAffected":0,"numAtRisk":48},{"groupId":"EG003","numEvents":0,"numAffected":0,"numAtRisk":48}]},{"term":"Hypersensitivity","organSystem":"Immune system disorders","sourceVocabulary":"MedDRA 26.1","assessmentType":"SYSTEMATIC_ASSESSMENT","stats":[{"groupId":"EG000","numEvents":0,"numAffected":0,"numAtRisk":47},{"groupId":"EG001","numEvents":0,"numAffected":0,"numAtRisk":47},{"groupId":"EG002","numEvents":0,"numAffected":0,"numAtRisk":48},{"groupId":"EG003","numEvents":2,"numAffected":2,"numAtRisk":48}]},{"term":"Seasonal allergy","organSystem":"Immune system disorders","sourceVocabulary":"MedDRA 26.1","assessmentType":"SYSTEMATIC_ASSESSMENT","stats":[{"groupId":"EG000","numEvents":0,"numAffected":0,"numAtRisk":47},{"groupId":"EG001","numEvents":0,"numAffected":0,"numAtRisk":47},{"groupId":"EG002","numEvents":1,"numAffected":1,"numAtRisk":48},{"groupId":"EG003","numEvents":0,"numAffected":0,"numAtRisk":48}]},{"term":"Acute sinusitis","organSystem":"Infections and infestations","sourceVocabulary":"MedDRA 26.1","assessmentType":"SYSTEMATIC_ASSESSMENT","stats":[{"groupId":"EG000","numEvents":0,"numAffected":0,"numAtRisk":47},{"groupId":"EG001","numEvents":0,"numAffected":0,"numAtRisk":47},{"groupId":"EG002","numEvents":0,"numAffected":0,"numAtRisk":48},{"groupId":"EG003","numEvents":1,"numAffected":1,"numAtRisk":48}]},{"term":"Bacterial vaginosis","organSystem":"Infections and infestations","sourceVocabulary":"MedDRA 26.1","assessmentType":"SYSTEMATIC_ASSESSMENT","stats":[{"groupId":"EG000","numEvents":0,"numAffected":0,"numAtRisk":27},{"groupId":"EG001","numEvents":1,"numAffected":1,"numAtRisk":26},{"groupId":"EG002","numEvents":0,"numAffected":0,"numAtRisk":29},{"groupId":"EG003","numEvents":0,"numAffected":0,"numAtRisk":27}]},{"term":"Bronchitis","organSystem":"Infections and infestations","sourceVocabulary":"MedDRA 26.1","assessmentType":"SYSTEMATIC_ASSESSMENT","stats":[{"groupId":"EG000","numEvents":2,"numAffected":2,"numAtRisk":47},{"groupId":"EG001","numEvents":0,"numAffected":0,"numAtRisk":47},{"groupId":"EG002","numEvents":0,"numAffected":0,"numAtRisk":48},{"groupId":"EG003","numEvents":3,"numAffected":2,"numAtRisk":48}]},{"term":"Cellulitis","organSystem":"Infections and infestations","sourceVocabulary":"MedDRA 26.1","assessmentType":"SYSTEMATIC_ASSESSMENT","stats":[{"groupId":"EG000","numEvents":0,"numAffected":0,"numAtRisk":47},{"groupId":"EG001","numEvents":0,"numAffected":0,"numAtRisk":47},{"groupId":"EG002","numEvents":0,"numAffected":0,"numAtRisk":48},{"groupId":"EG003","numEvents":1,"numAffected":1,"numAtRisk":48}]},{"term":"Conjunctivitis","organSystem":"Infections and infestations","sourceVocabulary":"MedDRA 26.1","assessmentType":"SYSTEMATIC_ASSESSMENT","stats":[{"groupId":"EG000","numEvents":0,"numAffected":0,"numAtRisk":47},{"groupId":"EG001","numEvents":2,"numAffected":2,"numAtRisk":47},{"groupId":"EG002","numEvents":0,"numAffected":0,"numAtRisk":48},{"groupId":"EG003","numEvents":1,"numAffected":1,"numAtRisk":48}]},{"term":"Covid-19","organSystem":"Infections and infestations","sourceVocabulary":"MedDRA 26.1","assessmentType":"SYSTEMATIC_ASSESSMENT","stats":[{"groupId":"EG000","numEvents":6,"numAffected":5,"numAtRisk":47},{"groupId":"EG001","numEvents":6,"numAffected":6,"numAtRisk":47},{"groupId":"EG002","numEvents":9,"numAffected":9,"numAtRisk":48},{"groupId":"EG003","numEvents":5,"numAffected":4,"numAtRisk":48}]},{"term":"Cystitis","organSystem":"Infections and infestations","sourceVocabulary":"MedDRA 26.1","assessmentType":"SYSTEMATIC_ASSESSMENT","stats":[{"groupId":"EG000","numEvents":0,"numAffected":0,"numAtRisk":47},{"groupId":"EG001","numEvents":0,"numAffected":0,"numAtRisk":47},{"groupId":"EG002","numEvents":1,"numAffected":1,"numAtRisk":48},{"groupId":"EG003","numEvents":0,"numAffected":0,"numAtRisk":48}]},{"term":"Folliculitis","organSystem":"Infections and infestations","sourceVocabulary":"MedDRA 26.1","assessmentType":"SYSTEMATIC_ASSESSMENT","stats":[{"groupId":"EG000","numEvents":1,"numAffected":1,"numAtRisk":47},{"groupId":"EG001","numEvents":0,"numAffected":0,"numAtRisk":47},{"groupId":"EG002","numEvents":0,"numAffected":0,"numAtRisk":48},{"groupId":"EG003","numEvents":1,"numAffected":1,"numAtRisk":48}]},{"term":"Fungal infection","organSystem":"Infections and infestations","sourceVocabulary":"MedDRA 26.1","assessmentType":"SYSTEMATIC_ASSESSMENT","stats":[{"groupId":"EG000","numEvents":1,"numAffected":1,"numAtRisk":47},{"groupId":"EG001","numEvents":0,"numAffected":0,"numAtRisk":47},{"groupId":"EG002","numEvents":0,"numAffected":0,"numAtRisk":48},{"groupId":"EG003","numEvents":0,"numAffected":0,"numAtRisk":48}]},{"term":"Gastroenteritis","organSystem":"Infections and infestations","sourceVocabulary":"MedDRA 26.1","assessmentType":"SYSTEMATIC_ASSESSMENT","stats":[{"groupId":"EG000","numEvents":0,"numAffected":0,"numAtRisk":47},{"groupId":"EG001","numEvents":1,"numAffected":1,"numAtRisk":47},{"groupId":"EG002","numEvents":0,"numAffected":0,"numAtRisk":48},{"groupId":"EG003","numEvents":0,"numAffected":0,"numAtRisk":48}]},{"term":"Hand-foot-and-mouth disease","organSystem":"Infections and infestations","sourceVocabulary":"MedDRA 26.1","assessmentType":"SYSTEMATIC_ASSESSMENT","stats":[{"groupId":"EG000","numEvents":0,"numAffected":0,"numAtRisk":47},{"groupId":"EG001","numEvents":1,"numAffected":1,"numAtRisk":47},{"groupId":"EG002","numEvents":0,"numAffected":0,"numAtRisk":48},{"groupId":"EG003","numEvents":0,"numAffected":0,"numAtRisk":48}]},{"term":"Helicobacter gastritis","organSystem":"Infections and infestations","sourceVocabulary":"MedDRA 26.1","assessmentType":"SYSTEMATIC_ASSESSMENT","stats":[{"groupId":"EG000","numEvents":0,"numAffected":0,"numAtRisk":47},{"groupId":"EG001","numEvents":1,"numAffected":1,"numAtRisk":47},{"groupId":"EG002","numEvents":0,"numAffected":0,"numAtRisk":48},{"groupId":"EG003","numEvents":0,"numAffected":0,"numAtRisk":48}]},{"term":"Helicobacter infection","organSystem":"Infections and infestations","sourceVocabulary":"MedDRA 26.1","assessmentType":"SYSTEMATIC_ASSESSMENT","stats":[{"groupId":"EG000","numEvents":0,"numAffected":0,"numAtRisk":47},{"groupId":"EG001","numEvents":0,"numAffected":0,"numAtRisk":47},{"groupId":"EG002","numEvents":2,"numAffected":2,"numAtRisk":48},{"groupId":"EG003","numEvents":0,"numAffected":0,"numAtRisk":48}]},{"term":"Herpes virus infection","organSystem":"Infections and infestations","sourceVocabulary":"MedDRA 26.1","assessmentType":"SYSTEMATIC_ASSESSMENT","stats":[{"groupId":"EG000","numEvents":0,"numAffected":0,"numAtRisk":47},{"groupId":"EG001","numEvents":1,"numAffected":1,"numAtRisk":47},{"groupId":"EG002","numEvents":0,"numAffected":0,"numAtRisk":48},{"groupId":"EG003","numEvents":0,"numAffected":0,"numAtRisk":48}]},{"term":"Herpes zoster","organSystem":"Infections and infestations","sourceVocabulary":"MedDRA 26.1","assessmentType":"SYSTEMATIC_ASSESSMENT","stats":[{"groupId":"EG000","numEvents":0,"numAffected":0,"numAtRisk":47},{"groupId":"EG001","numEvents":1,"numAffected":1,"numAtRisk":47},{"groupId":"EG002","numEvents":1,"numAffected":1,"numAtRisk":48},{"groupId":"EG003","numEvents":0,"numAffected":0,"numAtRisk":48}]},{"term":"Infected bite","organSystem":"Infections and infestations","sourceVocabulary":"MedDRA 26.1","assessmentType":"SYSTEMATIC_ASSESSMENT","stats":[{"groupId":"EG000","numEvents":1,"numAffected":1,"numAtRisk":47},{"groupId":"EG001","numEvents":0,"numAffected":0,"numAtRisk":47},{"groupId":"EG002","numEvents":0,"numAffected":0,"numAtRisk":48},{"groupId":"EG003","numEvents":0,"numAffected":0,"numAtRisk":48}]},{"term":"Influenza","organSystem":"Infections and infestations","sourceVocabulary":"MedDRA 26.1","assessmentType":"SYSTEMATIC_ASSESSMENT","stats":[{"groupId":"EG000","numEvents":0,"numAffected":0,"numAtRisk":47},{"groupId":"EG001","numEvents":2,"numAffected":2,"numAtRisk":47},{"groupId":"EG002","numEvents":0,"numAffected":0,"numAtRisk":48},{"groupId":"EG003","numEvents":0,"numAffected":0,"numAtRisk":48}]},{"term":"Lower respiratory tract infection","organSystem":"Infections and infestations","sourceVocabulary":"MedDRA 26.1","assessmentType":"SYSTEMATIC_ASSESSMENT","stats":[{"groupId":"EG000","numEvents":0,"numAffected":0,"numAtRisk":47},{"groupId":"EG001","numEvents":0,"numAffected":0,"numAtRisk":47},{"groupId":"EG002","numEvents":1,"numAffected":1,"numAtRisk":48},{"groupId":"EG003","numEvents":0,"numAffected":0,"numAtRisk":48}]},{"term":"Nasopharyngitis","organSystem":"Infections and infestations","sourceVocabulary":"MedDRA 26.1","assessmentType":"SYSTEMATIC_ASSESSMENT","stats":[{"groupId":"EG000","numEvents":1,"numAffected":1,"numAtRisk":47},{"groupId":"EG001","numEvents":1,"numAffected":1,"numAtRisk":47},{"groupId":"EG002","numEvents":2,"numAffected":2,"numAtRisk":48},{"groupId":"EG003","numEvents":1,"numAffected":1,"numAtRisk":48}]},{"term":"Onychomycosis","organSystem":"Infections and infestations","sourceVocabulary":"MedDRA 26.1","assessmentType":"SYSTEMATIC_ASSESSMENT","stats":[{"groupId":"EG000","numEvents":0,"numAffected":0,"numAtRisk":47},{"groupId":"EG001","numEvents":1,"numAffected":1,"numAtRisk":47},{"groupId":"EG002","numEvents":0,"numAffected":0,"numAtRisk":48},{"groupId":"EG003","numEvents":0,"numAffected":0,"numAtRisk":48}]},{"term":"Oral fungal infection","organSystem":"Infections and infestations","sourceVocabulary":"MedDRA 26.1","assessmentType":"SYSTEMATIC_ASSESSMENT","stats":[{"groupId":"EG000","numEvents":1,"numAffected":1,"numAtRisk":47},{"groupId":"EG001","numEvents":0,"numAffected":0,"numAtRisk":47},{"groupId":"EG002","numEvents":0,"numAffected":0,"numAtRisk":48},{"groupId":"EG003","numEvents":0,"numAffected":0,"numAtRisk":48}]},{"term":"Otitis media","organSystem":"Infections and infestations","sourceVocabulary":"MedDRA 26.1","assessmentType":"SYSTEMATIC_ASSESSMENT","stats":[{"groupId":"EG000","numEvents":0,"numAffected":0,"numAtRisk":47},{"groupId":"EG001","numEvents":1,"numAffected":1,"numAtRisk":47},{"groupId":"EG002","numEvents":0,"numAffected":0,"numAtRisk":48},{"groupId":"EG003","numEvents":0,"numAffected":0,"numAtRisk":48}]},{"term":"Paronychia","organSystem":"Infections and infestations","sourceVocabulary":"MedDRA 26.1","assessmentType":"SYSTEMATIC_ASSESSMENT","stats":[{"groupId":"EG000","numEvents":0,"numAffected":0,"numAtRisk":47},{"groupId":"EG001","numEvents":1,"numAffected":1,"numAtRisk":47},{"groupId":"EG002","numEvents":0,"numAffected":0,"numAtRisk":48},{"groupId":"EG003","numEvents":0,"numAffected":0,"numAtRisk":48}]},{"term":"Pharyngitis streptococcal","organSystem":"Infections and infestations","sourceVocabulary":"MedDRA 26.1","assessmentType":"SYSTEMATIC_ASSESSMENT","stats":[{"groupId":"EG000","numEvents":1,"numAffected":1,"numAtRisk":47},{"groupId":"EG001","numEvents":0,"numAffected":0,"numAtRisk":47},{"groupId":"EG002","numEvents":0,"numAffected":0,"numAtRisk":48},{"groupId":"EG003","numEvents":0,"numAffected":0,"numAtRisk":48}]},{"term":"Respiratory tract infection viral","organSystem":"Infections and infestations","sourceVocabulary":"MedDRA 26.1","assessmentType":"SYSTEMATIC_ASSESSMENT","stats":[{"groupId":"EG000","numEvents":1,"numAffected":1,"numAtRisk":47},{"groupId":"EG001","numEvents":0,"numAffected":0,"numAtRisk":47},{"groupId":"EG002","numEvents":0,"numAffected":0,"numAtRisk":48},{"groupId":"EG003","numEvents":0,"numAffected":0,"numAtRisk":48}]},{"term":"Sinusitis","organSystem":"Infections and infestations","sourceVocabulary":"MedDRA 26.1","assessmentType":"SYSTEMATIC_ASSESSMENT","stats":[{"groupId":"EG000","numEvents":2,"numAffected":2,"numAtRisk":47},{"groupId":"EG001","numEvents":2,"numAffected":1,"numAtRisk":47},{"groupId":"EG002","numEvents":1,"numAffected":1,"numAtRisk":48},{"groupId":"EG003","numEvents":1,"numAffected":1,"numAtRisk":48}]},{"term":"Tooth infection","organSystem":"Infections and infestations","sourceVocabulary":"MedDRA 26.1","assessmentType":"SYSTEMATIC_ASSESSMENT","stats":[{"groupId":"EG000","numEvents":0,"numAffected":0,"numAtRisk":47},{"groupId":"EG001","numEvents":1,"numAffected":1,"numAtRisk":47},{"groupId":"EG002","numEvents":0,"numAffected":0,"numAtRisk":48},{"groupId":"EG003","numEvents":2,"numAffected":2,"numAtRisk":48}]},{"term":"Upper respiratory tract infection","organSystem":"Infections and infestations","sourceVocabulary":"MedDRA 26.1","assessmentType":"SYSTEMATIC_ASSESSMENT","stats":[{"groupId":"EG000","numEvents":2,"numAffected":2,"numAtRisk":47},{"groupId":"EG001","numEvents":3,"numAffected":3,"numAtRisk":47},{"groupId":"EG002","numEvents":1,"numAffected":1,"numAtRisk":48},{"groupId":"EG003","numEvents":0,"numAffected":0,"numAtRisk":48}]},{"term":"Urinary tract infection","organSystem":"Infections and infestations","sourceVocabulary":"MedDRA 26.1","assessmentType":"SYSTEMATIC_ASSESSMENT","stats":[{"groupId":"EG000","numEvents":2,"numAffected":2,"numAtRisk":47},{"groupId":"EG001","numEvents":4,"numAffected":3,"numAtRisk":47},{"groupId":"EG002","numEvents":2,"numAffected":2,"numAtRisk":48},{"groupId":"EG003","numEvents":4,"numAffected":4,"numAtRisk":48}]},{"term":"Viral rhinitis","organSystem":"Infections and infestations","sourceVocabulary":"MedDRA 26.1","assessmentType":"SYSTEMATIC_ASSESSMENT","stats":[{"groupId":"EG000","numEvents":0,"numAffected":0,"numAtRisk":47},{"groupId":"EG001","numEvents":0,"numAffected":0,"numAtRisk":47},{"groupId":"EG002","numEvents":0,"numAffected":0,"numAtRisk":48},{"groupId":"EG003","numEvents":1,"numAffected":1,"numAtRisk":48}]},{"term":"Vulvovaginal candidiasis","organSystem":"Infections and infestations","sourceVocabulary":"MedDRA 26.1","assessmentType":"SYSTEMATIC_ASSESSMENT","stats":[{"groupId":"EG000","numEvents":0,"numAffected":0,"numAtRisk":27},{"groupId":"EG001","numEvents":0,"numAffected":0,"numAtRisk":26},{"groupId":"EG002","numEvents":1,"numAffected":1,"numAtRisk":29},{"groupId":"EG003","numEvents":0,"numAffected":0,"numAtRisk":27}]},{"term":"Vulvovaginal mycotic infection","organSystem":"Infections and infestations","sourceVocabulary":"MedDRA 26.1","assessmentType":"SYSTEMATIC_ASSESSMENT","stats":[{"groupId":"EG000","numEvents":0,"numAffected":0,"numAtRisk":27},{"groupId":"EG001","numEvents":1,"numAffected":1,"numAtRisk":26},{"groupId":"EG002","numEvents":0,"numAffected":0,"numAtRisk":29},{"groupId":"EG003","numEvents":0,"numAffected":0,"numAtRisk":27}]},{"term":"Animal bite","organSystem":"Injury, poisoning and procedural complications","sourceVocabulary":"MedDRA 26.1","assessmentType":"SYSTEMATIC_ASSESSMENT","stats":[{"groupId":"EG000","numEvents":0,"numAffected":0,"numAtRisk":47},{"groupId":"EG001","numEvents":0,"numAffected":0,"numAtRisk":47},{"groupId":"EG002","numEvents":0,"numAffected":0,"numAtRisk":48},{"groupId":"EG003","numEvents":1,"numAffected":1,"numAtRisk":48}]},{"term":"Epicondylitis","organSystem":"Injury, poisoning and procedural complications","sourceVocabulary":"MedDRA 26.1","assessmentType":"SYSTEMATIC_ASSESSMENT","stats":[{"groupId":"EG000","numEvents":0,"numAffected":0,"numAtRisk":47},{"groupId":"EG001","numEvents":1,"numAffected":1,"numAtRisk":47},{"groupId":"EG002","numEvents":0,"numAffected":0,"numAtRisk":48},{"groupId":"EG003","numEvents":0,"numAffected":0,"numAtRisk":48}]},{"term":"Exposure to toxic agent","organSystem":"Injury, poisoning and procedural complications","sourceVocabulary":"MedDRA 26.1","assessmentType":"SYSTEMATIC_ASSESSMENT","stats":[{"groupId":"EG000","numEvents":0,"numAffected":0,"numAtRisk":47},{"groupId":"EG001","numEvents":3,"numAffected":1,"numAtRisk":47},{"groupId":"EG002","numEvents":0,"numAffected":0,"numAtRisk":48},{"groupId":"EG003","numEvents":0,"numAffected":0,"numAtRisk":48}]},{"term":"Fall","organSystem":"Injury, poisoning and procedural complications","sourceVocabulary":"MedDRA 26.1","assessmentType":"SYSTEMATIC_ASSESSMENT","stats":[{"groupId":"EG000","numEvents":1,"numAffected":1,"numAtRisk":47},{"groupId":"EG001","numEvents":1,"numAffected":1,"numAtRisk":47},{"groupId":"EG002","numEvents":1,"numAffected":1,"numAtRisk":48},{"groupId":"EG003","numEvents":0,"numAffected":0,"numAtRisk":48}]},{"term":"Fibula fracture","organSystem":"Injury, poisoning and procedural complications","sourceVocabulary":"MedDRA 26.1","assessmentType":"SYSTEMATIC_ASSESSMENT","stats":[{"groupId":"EG000","numEvents":1,"numAffected":1,"numAtRisk":47},{"groupId":"EG001","numEvents":0,"numAffected":0,"numAtRisk":47},{"groupId":"EG002","numEvents":0,"numAffected":0,"numAtRisk":48},{"groupId":"EG003","numEvents":0,"numAffected":0,"numAtRisk":48}]},{"term":"Immunisation reaction","organSystem":"Injury, poisoning and procedural complications","sourceVocabulary":"MedDRA 26.1","assessmentType":"SYSTEMATIC_ASSESSMENT","stats":[{"groupId":"EG000","numEvents":0,"numAffected":0,"numAtRisk":47},{"groupId":"EG001","numEvents":0,"numAffected":0,"numAtRisk":47},{"groupId":"EG002","numEvents":0,"numAffected":0,"numAtRisk":48},{"groupId":"EG003","numEvents":2,"numAffected":2,"numAtRisk":48}]},{"term":"Joint injury","organSystem":"Injury, poisoning and procedural complications","sourceVocabulary":"MedDRA 26.1","assessmentType":"SYSTEMATIC_ASSESSMENT","stats":[{"groupId":"EG000","numEvents":0,"numAffected":0,"numAtRisk":47},{"groupId":"EG001","numEvents":0,"numAffected":0,"numAtRisk":47},{"groupId":"EG002","numEvents":1,"numAffected":1,"numAtRisk":48},{"groupId":"EG003","numEvents":0,"numAffected":0,"numAtRisk":48}]},{"term":"Ligament sprain","organSystem":"Injury, poisoning and procedural complications","sourceVocabulary":"MedDRA 26.1","assessmentType":"SYSTEMATIC_ASSESSMENT","stats":[{"groupId":"EG000","numEvents":0,"numAffected":0,"numAtRisk":47},{"groupId":"EG001","numEvents":2,"numAffected":2,"numAtRisk":47},{"groupId":"EG002","numEvents":0,"numAffected":0,"numAtRisk":48},{"groupId":"EG003","numEvents":0,"numAffected":0,"numAtRisk":48}]},{"term":"Meniscus injury","organSystem":"Injury, poisoning and procedural complications","sourceVocabulary":"MedDRA 26.1","assessmentType":"SYSTEMATIC_ASSESSMENT","stats":[{"groupId":"EG000","numEvents":1,"numAffected":1,"numAtRisk":47},{"groupId":"EG001","numEvents":0,"numAffected":0,"numAtRisk":47},{"groupId":"EG002","numEvents":0,"numAffected":0,"numAtRisk":48},{"groupId":"EG003","numEvents":0,"numAffected":0,"numAtRisk":48}]},{"term":"Muscle strain","organSystem":"Injury, poisoning and procedural complications","sourceVocabulary":"MedDRA 26.1","assessmentType":"SYSTEMATIC_ASSESSMENT","stats":[{"groupId":"EG000","numEvents":0,"numAffected":0,"numAtRisk":47},{"groupId":"EG001","numEvents":2,"numAffected":2,"numAtRisk":47},{"groupId":"EG002","numEvents":0,"numAffected":0,"numAtRisk":48},{"groupId":"EG003","numEvents":0,"numAffected":0,"numAtRisk":48}]},{"term":"Post procedural bile leak","organSystem":"Injury, poisoning and procedural complications","sourceVocabulary":"MedDRA 26.1","assessmentType":"SYSTEMATIC_ASSESSMENT","stats":[{"groupId":"EG000","numEvents":0,"numAffected":0,"numAtRisk":47},{"groupId":"EG001","numEvents":0,"numAffected":0,"numAtRisk":47},{"groupId":"EG002","numEvents":0,"numAffected":0,"numAtRisk":48},{"groupId":"EG003","numEvents":1,"numAffected":1,"numAtRisk":48}]},{"term":"Post procedural fever","organSystem":"Injury, poisoning and procedural complications","sourceVocabulary":"MedDRA 26.1","assessmentType":"SYSTEMATIC_ASSESSMENT","stats":[{"groupId":"EG000","numEvents":0,"numAffected":0,"numAtRisk":47},{"groupId":"EG001","numEvents":0,"numAffected":0,"numAtRisk":47},{"groupId":"EG002","numEvents":0,"numAffected":0,"numAtRisk":48},{"groupId":"EG003","numEvents":1,"numAffected":1,"numAtRisk":48}]},{"term":"Post vaccination syndrome","organSystem":"Injury, poisoning and procedural complications","sourceVocabulary":"MedDRA 26.1","assessmentType":"SYSTEMATIC_ASSESSMENT","stats":[{"groupId":"EG000","numEvents":0,"numAffected":0,"numAtRisk":47},{"groupId":"EG001","numEvents":0,"numAffected":0,"numAtRisk":47},{"groupId":"EG002","numEvents":0,"numAffected":0,"numAtRisk":48},{"groupId":"EG003","numEvents":2,"numAffected":1,"numAtRisk":48}]},{"term":"Procedural nausea","organSystem":"Injury, poisoning and procedural complications","sourceVocabulary":"MedDRA 26.1","assessmentType":"SYSTEMATIC_ASSESSMENT","stats":[{"groupId":"EG000","numEvents":1,"numAffected":1,"numAtRisk":47},{"groupId":"EG001","numEvents":0,"numAffected":0,"numAtRisk":47},{"groupId":"EG002","numEvents":0,"numAffected":0,"numAtRisk":48},{"groupId":"EG003","numEvents":0,"numAffected":0,"numAtRisk":48}]},{"term":"Procedural pain","organSystem":"Injury, poisoning and procedural complications","sourceVocabulary":"MedDRA 26.1","assessmentType":"SYSTEMATIC_ASSESSMENT","stats":[{"groupId":"EG000","numEvents":1,"numAffected":1,"numAtRisk":47},{"groupId":"EG001","numEvents":2,"numAffected":2,"numAtRisk":47},{"groupId":"EG002","numEvents":0,"numAffected":0,"numAtRisk":48},{"groupId":"EG003","numEvents":3,"numAffected":3,"numAtRisk":48}]},{"term":"Rib fracture","organSystem":"Injury, poisoning and procedural complications","sourceVocabulary":"MedDRA 26.1","assessmentType":"SYSTEMATIC_ASSESSMENT","stats":[{"groupId":"EG000","numEvents":0,"numAffected":0,"numAtRisk":47},{"groupId":"EG001","numEvents":0,"numAffected":0,"numAtRisk":47},{"groupId":"EG002","numEvents":0,"numAffected":0,"numAtRisk":48},{"groupId":"EG003","numEvents":1,"numAffected":1,"numAtRisk":48}]},{"term":"Skin abrasion","organSystem":"Injury, poisoning and procedural complications","sourceVocabulary":"MedDRA 26.1","assessmentType":"SYSTEMATIC_ASSESSMENT","stats":[{"groupId":"EG000","numEvents":0,"numAffected":0,"numAtRisk":47},{"groupId":"EG001","numEvents":1,"numAffected":1,"numAtRisk":47},{"groupId":"EG002","numEvents":0,"numAffected":0,"numAtRisk":48},{"groupId":"EG003","numEvents":1,"numAffected":1,"numAtRisk":48}]},{"term":"Skin laceration","organSystem":"Injury, poisoning and procedural complications","sourceVocabulary":"MedDRA 26.1","assessmentType":"SYSTEMATIC_ASSESSMENT","stats":[{"groupId":"EG000","numEvents":0,"numAffected":0,"numAtRisk":47},{"groupId":"EG001","numEvents":0,"numAffected":0,"numAtRisk":47},{"groupId":"EG002","numEvents":2,"numAffected":1,"numAtRisk":48},{"groupId":"EG003","numEvents":1,"numAffected":1,"numAtRisk":48}]},{"term":"Spinal compression fracture","organSystem":"Injury, poisoning and procedural complications","sourceVocabulary":"MedDRA 26.1","assessmentType":"SYSTEMATIC_ASSESSMENT","stats":[{"groupId":"EG000","numEvents":0,"numAffected":0,"numAtRisk":47},{"groupId":"EG001","numEvents":0,"numAffected":0,"numAtRisk":47},{"groupId":"EG002","numEvents":0,"numAffected":0,"numAtRisk":48},{"groupId":"EG003","numEvents":1,"numAffected":1,"numAtRisk":48}]},{"term":"Stoma site haemorrhage","organSystem":"Injury, poisoning and procedural complications","sourceVocabulary":"MedDRA 26.1","assessmentType":"SYSTEMATIC_ASSESSMENT","stats":[{"groupId":"EG000","numEvents":0,"numAffected":0,"numAtRisk":47},{"groupId":"EG001","numEvents":0,"numAffected":0,"numAtRisk":47},{"groupId":"EG002","numEvents":0,"numAffected":0,"numAtRisk":48},{"groupId":"EG003","numEvents":1,"numAffected":1,"numAtRisk":48}]},{"term":"Thermal burn","organSystem":"Injury, poisoning and procedural complications","sourceVocabulary":"MedDRA 26.1","assessmentType":"SYSTEMATIC_ASSESSMENT","stats":[{"groupId":"EG000","numEvents":0,"numAffected":0,"numAtRisk":47},{"groupId":"EG001","numEvents":0,"numAffected":0,"numAtRisk":47},{"groupId":"EG002","numEvents":0,"numAffected":0,"numAtRisk":48},{"groupId":"EG003","numEvents":1,"numAffected":1,"numAtRisk":48}]},{"term":"Tooth fracture","organSystem":"Injury, poisoning and procedural complications","sourceVocabulary":"MedDRA 26.1","assessmentType":"SYSTEMATIC_ASSESSMENT","stats":[{"groupId":"EG000","numEvents":0,"numAffected":0,"numAtRisk":47},{"groupId":"EG001","numEvents":1,"numAffected":1,"numAtRisk":47},{"groupId":"EG002","numEvents":0,"numAffected":0,"numAtRisk":48},{"groupId":"EG003","numEvents":1,"numAffected":1,"numAtRisk":48}]},{"term":"Alanine aminotransferase increased","organSystem":"Investigations","sourceVocabulary":"MedDRA 26.1","assessmentType":"SYSTEMATIC_ASSESSMENT","stats":[{"groupId":"EG000","numEvents":1,"numAffected":1,"numAtRisk":47},{"groupId":"EG001","numEvents":1,"numAffected":1,"numAtRisk":47},{"groupId":"EG002","numEvents":0,"numAffected":0,"numAtRisk":48},{"groupId":"EG003","numEvents":1,"numAffected":1,"numAtRisk":48}]},{"term":"Amylase increased","organSystem":"Investigations","sourceVocabulary":"MedDRA 26.1","assessmentType":"SYSTEMATIC_ASSESSMENT","stats":[{"groupId":"EG000","numEvents":1,"numAffected":1,"numAtRisk":47},{"groupId":"EG001","numEvents":1,"numAffected":1,"numAtRisk":47},{"groupId":"EG002","numEvents":1,"numAffected":1,"numAtRisk":48},{"groupId":"EG003","numEvents":0,"numAffected":0,"numAtRisk":48}]},{"term":"Aspartate aminotransferase increased","organSystem":"Investigations","sourceVocabulary":"MedDRA 26.1","assessmentType":"SYSTEMATIC_ASSESSMENT","stats":[{"groupId":"EG000","numEvents":0,"numAffected":0,"numAtRisk":47},{"groupId":"EG001","numEvents":1,"numAffected":1,"numAtRisk":47},{"groupId":"EG002","numEvents":0,"numAffected":0,"numAtRisk":48},{"groupId":"EG003","numEvents":1,"numAffected":1,"numAtRisk":48}]},{"term":"Bacterial test positive","organSystem":"Investigations","sourceVocabulary":"MedDRA 26.1","assessmentType":"SYSTEMATIC_ASSESSMENT","stats":[{"groupId":"EG000","numEvents":1,"numAffected":1,"numAtRisk":47},{"groupId":"EG001","numEvents":0,"numAffected":0,"numAtRisk":47},{"groupId":"EG002","numEvents":0,"numAffected":0,"numAtRisk":48},{"groupId":"EG003","numEvents":0,"numAffected":0,"numAtRisk":48}]},{"term":"Biopsy liver","organSystem":"Investigations","sourceVocabulary":"MedDRA 26.1","assessmentType":"SYSTEMATIC_ASSESSMENT","stats":[{"groupId":"EG000","numEvents":0,"numAffected":0,"numAtRisk":47},{"groupId":"EG001","numEvents":0,"numAffected":0,"numAtRisk":47},{"groupId":"EG002","numEvents":1,"numAffected":1,"numAtRisk":48},{"groupId":"EG003","numEvents":0,"numAffected":0,"numAtRisk":48}]},{"term":"Blood alkaline phosphatase increased","organSystem":"Investigations","sourceVocabulary":"MedDRA 26.1","assessmentType":"SYSTEMATIC_ASSESSMENT","stats":[{"groupId":"EG000","numEvents":0,"numAffected":0,"numAtRisk":47},{"groupId":"EG001","numEvents":0,"numAffected":0,"numAtRisk":47},{"groupId":"EG002","numEvents":0,"numAffected":0,"numAtRisk":48},{"groupId":"EG003","numEvents":1,"numAffected":1,"numAtRisk":48}]},{"term":"Blood creatine phosphokinase increased","organSystem":"Investigations","sourceVocabulary":"MedDRA 26.1","assessmentType":"SYSTEMATIC_ASSESSMENT","stats":[{"groupId":"EG000","numEvents":0,"numAffected":0,"numAtRisk":47},{"groupId":"EG001","numEvents":0,"numAffected":0,"numAtRisk":47},{"groupId":"EG002","numEvents":0,"numAffected":0,"numAtRisk":48},{"groupId":"EG003","numEvents":1,"numAffected":1,"numAtRisk":48}]},{"term":"Blood glucose abnormal","organSystem":"Investigations","sourceVocabulary":"MedDRA 26.1","assessmentType":"SYSTEMATIC_ASSESSMENT","stats":[{"groupId":"EG000","numEvents":0,"numAffected":0,"numAtRisk":47},{"groupId":"EG001","numEvents":0,"numAffected":0,"numAtRisk":47},{"groupId":"EG002","numEvents":0,"numAffected":0,"numAtRisk":48},{"groupId":"EG003","numEvents":1,"numAffected":1,"numAtRisk":48}]},{"term":"Blood glucose decreased","organSystem":"Investigations","sourceVocabulary":"MedDRA 26.1","assessmentType":"SYSTEMATIC_ASSESSMENT","stats":[{"groupId":"EG000","numEvents":1,"numAffected":1,"numAtRisk":47},{"groupId":"EG001","numEvents":0,"numAffected":0,"numAtRisk":47},{"groupId":"EG002","numEvents":0,"numAffected":0,"numAtRisk":48},{"groupId":"EG003","numEvents":0,"numAffected":0,"numAtRisk":48}]},{"term":"Gamma-glutamyltransferase increased","organSystem":"Investigations","sourceVocabulary":"MedDRA 26.1","assessmentType":"SYSTEMATIC_ASSESSMENT","stats":[{"groupId":"EG000","numEvents":0,"numAffected":0,"numAtRisk":47},{"groupId":"EG001","numEvents":0,"numAffected":0,"numAtRisk":47},{"groupId":"EG002","numEvents":0,"numAffected":0,"numAtRisk":48},{"groupId":"EG003","numEvents":1,"numAffected":1,"numAtRisk":48}]},{"term":"Haematocrit abnormal","organSystem":"Investigations","sourceVocabulary":"MedDRA 26.1","assessmentType":"SYSTEMATIC_ASSESSMENT","stats":[{"groupId":"EG000","numEvents":0,"numAffected":0,"numAtRisk":47},{"groupId":"EG001","numEvents":0,"numAffected":0,"numAtRisk":47},{"groupId":"EG002","numEvents":0,"numAffected":0,"numAtRisk":48},{"groupId":"EG003","numEvents":1,"numAffected":1,"numAtRisk":48}]},{"term":"Haemoglobin abnormal","organSystem":"Investigations","sourceVocabulary":"MedDRA 26.1","assessmentType":"SYSTEMATIC_ASSESSMENT","stats":[{"groupId":"EG000","numEvents":0,"numAffected":0,"numAtRisk":47},{"groupId":"EG001","numEvents":0,"numAffected":0,"numAtRisk":47},{"groupId":"EG002","numEvents":0,"numAffected":0,"numAtRisk":48},{"groupId":"EG003","numEvents":1,"numAffected":1,"numAtRisk":48}]},{"term":"Hepatic enzyme increased","organSystem":"Investigations","sourceVocabulary":"MedDRA 26.1","assessmentType":"SYSTEMATIC_ASSESSMENT","stats":[{"groupId":"EG000","numEvents":0,"numAffected":0,"numAtRisk":47},{"groupId":"EG001","numEvents":0,"numAffected":0,"numAtRisk":47},{"groupId":"EG002","numEvents":0,"numAffected":0,"numAtRisk":48},{"groupId":"EG003","numEvents":1,"numAffected":1,"numAtRisk":48}]},{"term":"Lipase increased","organSystem":"Investigations","sourceVocabulary":"MedDRA 26.1","assessmentType":"SYSTEMATIC_ASSESSMENT","stats":[{"groupId":"EG000","numEvents":3,"numAffected":1,"numAtRisk":47},{"groupId":"EG001","numEvents":1,"numAffected":1,"numAtRisk":47},{"groupId":"EG002","numEvents":4,"numAffected":3,"numAtRisk":48},{"groupId":"EG003","numEvents":0,"numAffected":0,"numAtRisk":48}]},{"term":"Pancreatic enzymes increased","organSystem":"Investigations","sourceVocabulary":"MedDRA 26.1","assessmentType":"SYSTEMATIC_ASSESSMENT","stats":[{"groupId":"EG000","numEvents":1,"numAffected":1,"numAtRisk":47},{"groupId":"EG001","numEvents":0,"numAffected":0,"numAtRisk":47},{"groupId":"EG002","numEvents":0,"numAffected":0,"numAtRisk":48},{"groupId":"EG003","numEvents":0,"numAffected":0,"numAtRisk":48}]},{"term":"Sars-cov-2 test positive","organSystem":"Investigations","sourceVocabulary":"MedDRA 26.1","assessmentType":"SYSTEMATIC_ASSESSMENT","stats":[{"groupId":"EG000","numEvents":1,"numAffected":1,"numAtRisk":47},{"groupId":"EG001","numEvents":1,"numAffected":1,"numAtRisk":47},{"groupId":"EG002","numEvents":1,"numAffected":1,"numAtRisk":48},{"groupId":"EG003","numEvents":0,"numAffected":0,"numAtRisk":48}]},{"term":"Urine albumin/creatinine ratio increased","organSystem":"Investigations","sourceVocabulary":"MedDRA 26.1","assessmentType":"SYSTEMATIC_ASSESSMENT","stats":[{"groupId":"EG000","numEvents":0,"numAffected":0,"numAtRisk":47},{"groupId":"EG001","numEvents":0,"numAffected":0,"numAtRisk":47},{"groupId":"EG002","numEvents":0,"numAffected":0,"numAtRisk":48},{"groupId":"EG003","numEvents":1,"numAffected":1,"numAtRisk":48}]},{"term":"Weight decreased","organSystem":"Investigations","sourceVocabulary":"MedDRA 26.1","assessmentType":"SYSTEMATIC_ASSESSMENT","stats":[{"groupId":"EG000","numEvents":5,"numAffected":5,"numAtRisk":47},{"groupId":"EG001","numEvents":3,"numAffected":3,"numAtRisk":47},{"groupId":"EG002","numEvents":4,"numAffected":4,"numAtRisk":48},{"groupId":"EG003","numEvents":0,"numAffected":0,"numAtRisk":48}]},{"term":"Decreased appetite","organSystem":"Metabolism and nutrition disorders","sourceVocabulary":"MedDRA 26.1","assessmentType":"SYSTEMATIC_ASSESSMENT","stats":[{"groupId":"EG000","numEvents":9,"numAffected":9,"numAtRisk":47},{"groupId":"EG001","numEvents":12,"numAffected":10,"numAtRisk":47},{"groupId":"EG002","numEvents":12,"numAffected":11,"numAtRisk":48},{"groupId":"EG003","numEvents":1,"numAffected":1,"numAtRisk":48}]},{"term":"Diabetes mellitus","organSystem":"Metabolism and nutrition disorders","sourceVocabulary":"MedDRA 26.1","assessmentType":"SYSTEMATIC_ASSESSMENT","stats":[{"groupId":"EG000","numEvents":0,"numAffected":0,"numAtRisk":47},{"groupId":"EG001","numEvents":0,"numAffected":0,"numAtRisk":47},{"groupId":"EG002","numEvents":0,"numAffected":0,"numAtRisk":48},{"groupId":"EG003","numEvents":1,"numAffected":1,"numAtRisk":48}]},{"term":"Diabetes mellitus inadequate control","organSystem":"Metabolism and nutrition disorders","sourceVocabulary":"MedDRA 26.1","assessmentType":"SYSTEMATIC_ASSESSMENT","stats":[{"groupId":"EG000","numEvents":0,"numAffected":0,"numAtRisk":47},{"groupId":"EG001","numEvents":0,"numAffected":0,"numAtRisk":47},{"groupId":"EG002","numEvents":0,"numAffected":0,"numAtRisk":48},{"groupId":"EG003","numEvents":1,"numAffected":1,"numAtRisk":48}]},{"term":"Dyslipidaemia","organSystem":"Metabolism and nutrition disorders","sourceVocabulary":"MedDRA 26.1","assessmentType":"SYSTEMATIC_ASSESSMENT","stats":[{"groupId":"EG000","numEvents":1,"numAffected":1,"numAtRisk":47},{"groupId":"EG001","numEvents":0,"numAffected":0,"numAtRisk":47},{"groupId":"EG002","numEvents":0,"numAffected":0,"numAtRisk":48},{"groupId":"EG003","numEvents":0,"numAffected":0,"numAtRisk":48}]},{"term":"Glucose tolerance impaired","organSystem":"Metabolism and nutrition disorders","sourceVocabulary":"MedDRA 26.1","assessmentType":"SYSTEMATIC_ASSESSMENT","stats":[{"groupId":"EG000","numEvents":1,"numAffected":1,"numAtRisk":47},{"groupId":"EG001","numEvents":0,"numAffected":0,"numAtRisk":47},{"groupId":"EG002","numEvents":0,"numAffected":0,"numAtRisk":48},{"groupId":"EG003","numEvents":0,"numAffected":0,"numAtRisk":48}]},{"term":"Hypercholesterolaemia","organSystem":"Metabolism and nutrition disorders","sourceVocabulary":"MedDRA 26.1","assessmentType":"SYSTEMATIC_ASSESSMENT","stats":[{"groupId":"EG000","numEvents":0,"numAffected":0,"numAtRisk":47},{"groupId":"EG001","numEvents":1,"numAffected":1,"numAtRisk":47},{"groupId":"EG002","numEvents":0,"numAffected":0,"numAtRisk":48},{"groupId":"EG003","numEvents":0,"numAffected":0,"numAtRisk":48}]},{"term":"Hyperglycaemia","organSystem":"Metabolism and nutrition disorders","sourceVocabulary":"MedDRA 26.1","assessmentType":"SYSTEMATIC_ASSESSMENT","stats":[{"groupId":"EG000","numEvents":0,"numAffected":0,"numAtRisk":47},{"groupId":"EG001","numEvents":1,"numAffected":1,"numAtRisk":47},{"groupId":"EG002","numEvents":0,"numAffected":0,"numAtRisk":48},{"groupId":"EG003","numEvents":3,"numAffected":3,"numAtRisk":48}]},{"term":"Hyperkalaemia","organSystem":"Metabolism and nutrition disorders","sourceVocabulary":"MedDRA 26.1","assessmentType":"SYSTEMATIC_ASSESSMENT","stats":[{"groupId":"EG000","numEvents":0,"numAffected":0,"numAtRisk":47},{"groupId":"EG001","numEvents":0,"numAffected":0,"numAtRisk":47},{"groupId":"EG002","numEvents":0,"numAffected":0,"numAtRisk":48},{"groupId":"EG003","numEvents":1,"numAffected":1,"numAtRisk":48}]},{"term":"Hyperlipidaemia","organSystem":"Metabolism and nutrition disorders","sourceVocabulary":"MedDRA 26.1","assessmentType":"SYSTEMATIC_ASSESSMENT","stats":[{"groupId":"EG000","numEvents":0,"numAffected":0,"numAtRisk":47},{"groupId":"EG001","numEvents":1,"numAffected":1,"numAtRisk":47},{"groupId":"EG002","numEvents":0,"numAffected":0,"numAtRisk":48},{"groupId":"EG003","numEvents":0,"numAffected":0,"numAtRisk":48}]},{"term":"Hyperuricaemia","organSystem":"Metabolism and nutrition disorders","sourceVocabulary":"MedDRA 26.1","assessmentType":"SYSTEMATIC_ASSESSMENT","stats":[{"groupId":"EG000","numEvents":1,"numAffected":1,"numAtRisk":47},{"groupId":"EG001","numEvents":0,"numAffected":0,"numAtRisk":47},{"groupId":"EG002","numEvents":0,"numAffected":0,"numAtRisk":48},{"groupId":"EG003","numEvents":0,"numAffected":0,"numAtRisk":48}]},{"term":"Type 2 diabetes mellitus","organSystem":"Metabolism and nutrition disorders","sourceVocabulary":"MedDRA 26.1","assessmentType":"SYSTEMATIC_ASSESSMENT","stats":[{"groupId":"EG000","numEvents":0,"numAffected":0,"numAtRisk":47},{"groupId":"EG001","numEvents":0,"numAffected":0,"numAtRisk":47},{"groupId":"EG002","numEvents":0,"numAffected":0,"numAtRisk":48},{"groupId":"EG003","numEvents":3,"numAffected":3,"numAtRisk":48}]},{"term":"Vitamin d deficiency","organSystem":"Metabolism and nutrition disorders","sourceVocabulary":"MedDRA 26.1","assessmentType":"SYSTEMATIC_ASSESSMENT","stats":[{"groupId":"EG000","numEvents":0,"numAffected":0,"numAtRisk":47},{"groupId":"EG001","numEvents":0,"numAffected":0,"numAtRisk":47},{"groupId":"EG002","numEvents":0,"numAffected":0,"numAtRisk":48},{"groupId":"EG003","numEvents":1,"numAffected":1,"numAtRisk":48}]},{"term":"Arthralgia","organSystem":"Musculoskeletal and connective tissue disorders","sourceVocabulary":"MedDRA 26.1","assessmentType":"SYSTEMATIC_ASSESSMENT","stats":[{"groupId":"EG000","numEvents":5,"numAffected":5,"numAtRisk":47},{"groupId":"EG001","numEvents":2,"numAffected":2,"numAtRisk":47},{"groupId":"EG002","numEvents":2,"numAffected":2,"numAtRisk":48},{"groupId":"EG003","numEvents":1,"numAffected":1,"numAtRisk":48}]},{"term":"Back pain","organSystem":"Musculoskeletal and connective tissue disorders","sourceVocabulary":"MedDRA 26.1","assessmentType":"SYSTEMATIC_ASSESSMENT","stats":[{"groupId":"EG000","numEvents":3,"numAffected":2,"numAtRisk":47},{"groupId":"EG001","numEvents":1,"numAffected":1,"numAtRisk":47},{"groupId":"EG002","numEvents":1,"numAffected":1,"numAtRisk":48},{"groupId":"EG003","numEvents":3,"numAffected":2,"numAtRisk":48}]},{"term":"Bursitis","organSystem":"Musculoskeletal and connective tissue disorders","sourceVocabulary":"MedDRA 26.1","assessmentType":"SYSTEMATIC_ASSESSMENT","stats":[{"groupId":"EG000","numEvents":0,"numAffected":0,"numAtRisk":47},{"groupId":"EG001","numEvents":0,"numAffected":0,"numAtRisk":47},{"groupId":"EG002","numEvents":1,"numAffected":1,"numAtRisk":48},{"groupId":"EG003","numEvents":0,"numAffected":0,"numAtRisk":48}]},{"term":"Exostosis","organSystem":"Musculoskeletal and connective tissue disorders","sourceVocabulary":"MedDRA 26.1","assessmentType":"SYSTEMATIC_ASSESSMENT","stats":[{"groupId":"EG000","numEvents":0,"numAffected":0,"numAtRisk":47},{"groupId":"EG001","numEvents":0,"numAffected":0,"numAtRisk":47},{"groupId":"EG002","numEvents":0,"numAffected":0,"numAtRisk":48},{"groupId":"EG003","numEvents":1,"numAffected":1,"numAtRisk":48}]},{"term":"Greater trochanteric pain syndrome","organSystem":"Musculoskeletal and connective tissue disorders","sourceVocabulary":"MedDRA 26.1","assessmentType":"SYSTEMATIC_ASSESSMENT","stats":[{"groupId":"EG000","numEvents":0,"numAffected":0,"numAtRisk":47},{"groupId":"EG001","numEvents":0,"numAffected":0,"numAtRisk":47},{"groupId":"EG002","numEvents":1,"numAffected":1,"numAtRisk":48},{"groupId":"EG003","numEvents":0,"numAffected":0,"numAtRisk":48}]},{"term":"Immune-mediated myositis","organSystem":"Musculoskeletal and connective tissue disorders","sourceVocabulary":"MedDRA 26.1","assessmentType":"SYSTEMATIC_ASSESSMENT","stats":[{"groupId":"EG000","numEvents":0,"numAffected":0,"numAtRisk":47},{"groupId":"EG001","numEvents":0,"numAffected":0,"numAtRisk":47},{"groupId":"EG002","numEvents":0,"numAffected":0,"numAtRisk":48},{"groupId":"EG003","numEvents":1,"numAffected":1,"numAtRisk":48}]},{"term":"Intervertebral disc protrusion","organSystem":"Musculoskeletal and connective tissue disorders","sourceVocabulary":"MedDRA 26.1","assessmentType":"SYSTEMATIC_ASSESSMENT","stats":[{"groupId":"EG000","numEvents":1,"numAffected":1,"numAtRisk":47},{"groupId":"EG001","numEvents":0,"numAffected":0,"numAtRisk":47},{"groupId":"EG002","numEvents":0,"numAffected":0,"numAtRisk":48},{"groupId":"EG003","numEvents":0,"numAffected":0,"numAtRisk":48}]},{"term":"Joint swelling","organSystem":"Musculoskeletal and connective tissue disorders","sourceVocabulary":"MedDRA 26.1","assessmentType":"SYSTEMATIC_ASSESSMENT","stats":[{"groupId":"EG000","numEvents":0,"numAffected":0,"numAtRisk":47},{"groupId":"EG001","numEvents":0,"numAffected":0,"numAtRisk":47},{"groupId":"EG002","numEvents":0,"numAffected":0,"numAtRisk":48},{"groupId":"EG003","numEvents":1,"numAffected":1,"numAtRisk":48}]},{"term":"Limb discomfort","organSystem":"Musculoskeletal and connective tissue disorders","sourceVocabulary":"MedDRA 26.1","assessmentType":"SYSTEMATIC_ASSESSMENT","stats":[{"groupId":"EG000","numEvents":0,"numAffected":0,"numAtRisk":47},{"groupId":"EG001","numEvents":0,"numAffected":0,"numAtRisk":47},{"groupId":"EG002","numEvents":0,"numAffected":0,"numAtRisk":48},{"groupId":"EG003","numEvents":1,"numAffected":1,"numAtRisk":48}]},{"term":"Muscle spasms","organSystem":"Musculoskeletal and connective tissue disorders","sourceVocabulary":"MedDRA 26.1","assessmentType":"SYSTEMATIC_ASSESSMENT","stats":[{"groupId":"EG000","numEvents":3,"numAffected":2,"numAtRisk":47},{"groupId":"EG001","numEvents":1,"numAffected":1,"numAtRisk":47},{"groupId":"EG002","numEvents":0,"numAffected":0,"numAtRisk":48},{"groupId":"EG003","numEvents":0,"numAffected":0,"numAtRisk":48}]},{"term":"Musculoskeletal chest pain","organSystem":"Musculoskeletal and connective tissue disorders","sourceVocabulary":"MedDRA 26.1","assessmentType":"SYSTEMATIC_ASSESSMENT","stats":[{"groupId":"EG000","numEvents":1,"numAffected":1,"numAtRisk":47},{"groupId":"EG001","numEvents":0,"numAffected":0,"numAtRisk":47},{"groupId":"EG002","numEvents":0,"numAffected":0,"numAtRisk":48},{"groupId":"EG003","numEvents":1,"numAffected":1,"numAtRisk":48}]},{"term":"Myalgia","organSystem":"Musculoskeletal and connective tissue disorders","sourceVocabulary":"MedDRA 26.1","assessmentType":"SYSTEMATIC_ASSESSMENT","stats":[{"groupId":"EG000","numEvents":1,"numAffected":1,"numAtRisk":47},{"groupId":"EG001","numEvents":0,"numAffected":0,"numAtRisk":47},{"groupId":"EG002","numEvents":0,"numAffected":0,"numAtRisk":48},{"groupId":"EG003","numEvents":1,"numAffected":1,"numAtRisk":48}]},{"term":"Neck pain","organSystem":"Musculoskeletal and connective tissue disorders","sourceVocabulary":"MedDRA 26.1","assessmentType":"SYSTEMATIC_ASSESSMENT","stats":[{"groupId":"EG000","numEvents":1,"numAffected":1,"numAtRisk":47},{"groupId":"EG001","numEvents":1,"numAffected":1,"numAtRisk":47},{"groupId":"EG002","numEvents":0,"numAffected":0,"numAtRisk":48},{"groupId":"EG003","numEvents":0,"numAffected":0,"numAtRisk":48}]},{"term":"Osteoarthritis","organSystem":"Musculoskeletal and connective tissue disorders","sourceVocabulary":"MedDRA 26.1","assessmentType":"SYSTEMATIC_ASSESSMENT","stats":[{"groupId":"EG000","numEvents":2,"numAffected":2,"numAtRisk":47},{"groupId":"EG001","numEvents":1,"numAffected":1,"numAtRisk":47},{"groupId":"EG002","numEvents":0,"numAffected":0,"numAtRisk":48},{"groupId":"EG003","numEvents":0,"numAffected":0,"numAtRisk":48}]},{"term":"Osteochondritis","organSystem":"Musculoskeletal and connective tissue disorders","sourceVocabulary":"MedDRA 26.1","assessmentType":"SYSTEMATIC_ASSESSMENT","stats":[{"groupId":"EG000","numEvents":0,"numAffected":0,"numAtRisk":47},{"groupId":"EG001","numEvents":1,"numAffected":1,"numAtRisk":47},{"groupId":"EG002","numEvents":0,"numAffected":0,"numAtRisk":48},{"groupId":"EG003","numEvents":0,"numAffected":0,"numAtRisk":48}]},{"term":"Osteopenia","organSystem":"Musculoskeletal and connective tissue disorders","sourceVocabulary":"MedDRA 26.1","assessmentType":"SYSTEMATIC_ASSESSMENT","stats":[{"groupId":"EG000","numEvents":1,"numAffected":1,"numAtRisk":47},{"groupId":"EG001","numEvents":0,"numAffected":0,"numAtRisk":47},{"groupId":"EG002","numEvents":0,"numAffected":0,"numAtRisk":48},{"groupId":"EG003","numEvents":0,"numAffected":0,"numAtRisk":48}]},{"term":"Osteoporosis","organSystem":"Musculoskeletal and connective tissue disorders","sourceVocabulary":"MedDRA 26.1","assessmentType":"SYSTEMATIC_ASSESSMENT","stats":[{"groupId":"EG000","numEvents":1,"numAffected":1,"numAtRisk":47},{"groupId":"EG001","numEvents":0,"numAffected":0,"numAtRisk":47},{"groupId":"EG002","numEvents":0,"numAffected":0,"numAtRisk":48},{"groupId":"EG003","numEvents":0,"numAffected":0,"numAtRisk":48}]},{"term":"Pain in extremity","organSystem":"Musculoskeletal and connective tissue disorders","sourceVocabulary":"MedDRA 26.1","assessmentType":"SYSTEMATIC_ASSESSMENT","stats":[{"groupId":"EG000","numEvents":2,"numAffected":2,"numAtRisk":47},{"groupId":"EG001","numEvents":2,"numAffected":2,"numAtRisk":47},{"groupId":"EG002","numEvents":1,"numAffected":1,"numAtRisk":48},{"groupId":"EG003","numEvents":1,"numAffected":1,"numAtRisk":48}]},{"term":"Rhabdomyolysis","organSystem":"Musculoskeletal and connective tissue disorders","sourceVocabulary":"MedDRA 26.1","assessmentType":"SYSTEMATIC_ASSESSMENT","stats":[{"groupId":"EG000","numEvents":0,"numAffected":0,"numAtRisk":47},{"groupId":"EG001","numEvents":0,"numAffected":0,"numAtRisk":47},{"groupId":"EG002","numEvents":0,"numAffected":0,"numAtRisk":48},{"groupId":"EG003","numEvents":1,"numAffected":1,"numAtRisk":48}]},{"term":"Rheumatic disorder","organSystem":"Musculoskeletal and connective tissue disorders","sourceVocabulary":"MedDRA 26.1","assessmentType":"SYSTEMATIC_ASSESSMENT","stats":[{"groupId":"EG000","numEvents":2,"numAffected":1,"numAtRisk":47},{"groupId":"EG001","numEvents":0,"numAffected":0,"numAtRisk":47},{"groupId":"EG002","numEvents":0,"numAffected":0,"numAtRisk":48},{"groupId":"EG003","numEvents":0,"numAffected":0,"numAtRisk":48}]},{"term":"Sacral pain","organSystem":"Musculoskeletal and connective tissue disorders","sourceVocabulary":"MedDRA 26.1","assessmentType":"SYSTEMATIC_ASSESSMENT","stats":[{"groupId":"EG000","numEvents":1,"numAffected":1,"numAtRisk":47},{"groupId":"EG001","numEvents":0,"numAffected":0,"numAtRisk":47},{"groupId":"EG002","numEvents":0,"numAffected":0,"numAtRisk":48},{"groupId":"EG003","numEvents":0,"numAffected":0,"numAtRisk":48}]},{"term":"Spinal pain","organSystem":"Musculoskeletal and connective tissue disorders","sourceVocabulary":"MedDRA 26.1","assessmentType":"SYSTEMATIC_ASSESSMENT","stats":[{"groupId":"EG000","numEvents":0,"numAffected":0,"numAtRisk":47},{"groupId":"EG001","numEvents":1,"numAffected":1,"numAtRisk":47},{"groupId":"EG002","numEvents":0,"numAffected":0,"numAtRisk":48},{"groupId":"EG003","numEvents":0,"numAffected":0,"numAtRisk":48}]},{"term":"Systemic lupus erythematosus","organSystem":"Musculoskeletal and connective tissue disorders","sourceVocabulary":"MedDRA 26.1","assessmentType":"SYSTEMATIC_ASSESSMENT","stats":[{"groupId":"EG000","numEvents":1,"numAffected":1,"numAtRisk":47},{"groupId":"EG001","numEvents":0,"numAffected":0,"numAtRisk":47},{"groupId":"EG002","numEvents":0,"numAffected":0,"numAtRisk":48},{"groupId":"EG003","numEvents":0,"numAffected":0,"numAtRisk":48}]},{"term":"Tendonitis","organSystem":"Musculoskeletal and connective tissue disorders","sourceVocabulary":"MedDRA 26.1","assessmentType":"SYSTEMATIC_ASSESSMENT","stats":[{"groupId":"EG000","numEvents":1,"numAffected":1,"numAtRisk":47},{"groupId":"EG001","numEvents":1,"numAffected":1,"numAtRisk":47},{"groupId":"EG002","numEvents":0,"numAffected":0,"numAtRisk":48},{"groupId":"EG003","numEvents":0,"numAffected":0,"numAtRisk":48}]},{"term":"Basal cell carcinoma","organSystem":"Neoplasms benign, malignant and unspecified (incl cysts and polyps)","sourceVocabulary":"MedDRA 26.1","assessmentType":"SYSTEMATIC_ASSESSMENT","stats":[{"groupId":"EG000","numEvents":0,"numAffected":0,"numAtRisk":47},{"groupId":"EG001","numEvents":0,"numAffected":0,"numAtRisk":47},{"groupId":"EG002","numEvents":1,"numAffected":1,"numAtRisk":48},{"groupId":"EG003","numEvents":0,"numAffected":0,"numAtRisk":48}]},{"term":"Colorectal adenoma","organSystem":"Neoplasms benign, malignant and unspecified (incl cysts and polyps)","sourceVocabulary":"MedDRA 26.1","assessmentType":"SYSTEMATIC_ASSESSMENT","stats":[{"groupId":"EG000","numEvents":0,"numAffected":0,"numAtRisk":47},{"groupId":"EG001","numEvents":0,"numAffected":0,"numAtRisk":47},{"groupId":"EG002","numEvents":0,"numAffected":0,"numAtRisk":48},{"groupId":"EG003","numEvents":1,"numAffected":1,"numAtRisk":48}]},{"term":"Hepatic adenoma","organSystem":"Neoplasms benign, malignant and unspecified (incl cysts and polyps)","sourceVocabulary":"MedDRA 26.1","assessmentType":"SYSTEMATIC_ASSESSMENT","stats":[{"groupId":"EG000","numEvents":0,"numAffected":0,"numAtRisk":47},{"groupId":"EG001","numEvents":0,"numAffected":0,"numAtRisk":47},{"groupId":"EG002","numEvents":0,"numAffected":0,"numAtRisk":48},{"groupId":"EG003","numEvents":1,"numAffected":1,"numAtRisk":48}]},{"term":"Meningioma","organSystem":"Neoplasms benign, malignant and unspecified (incl cysts and polyps)","sourceVocabulary":"MedDRA 26.1","assessmentType":"SYSTEMATIC_ASSESSMENT","stats":[{"groupId":"EG000","numEvents":0,"numAffected":0,"numAtRisk":47},{"groupId":"EG001","numEvents":0,"numAffected":0,"numAtRisk":47},{"groupId":"EG002","numEvents":1,"numAffected":1,"numAtRisk":48},{"groupId":"EG003","numEvents":0,"numAffected":0,"numAtRisk":48}]},{"term":"Ovarian neoplasm","organSystem":"Neoplasms benign, malignant and unspecified (incl cysts and polyps)","sourceVocabulary":"MedDRA 26.1","assessmentType":"SYSTEMATIC_ASSESSMENT","stats":[{"groupId":"EG000","numEvents":0,"numAffected":0,"numAtRisk":27},{"groupId":"EG001","numEvents":0,"numAffected":0,"numAtRisk":26},{"groupId":"EG002","numEvents":0,"numAffected":0,"numAtRisk":29},{"groupId":"EG003","numEvents":1,"numAffected":1,"numAtRisk":27}]},{"term":"Skin papilloma","organSystem":"Neoplasms benign, malignant and unspecified (incl cysts and polyps)","sourceVocabulary":"MedDRA 26.1","assessmentType":"SYSTEMATIC_ASSESSMENT","stats":[{"groupId":"EG000","numEvents":1,"numAffected":1,"numAtRisk":47},{"groupId":"EG001","numEvents":0,"numAffected":0,"numAtRisk":47},{"groupId":"EG002","numEvents":0,"numAffected":0,"numAtRisk":48},{"groupId":"EG003","numEvents":0,"numAffected":0,"numAtRisk":48}]},{"term":"Aphasia","organSystem":"Nervous system disorders","sourceVocabulary":"MedDRA 26.1","assessmentType":"SYSTEMATIC_ASSESSMENT","stats":[{"groupId":"EG000","numEvents":1,"numAffected":1,"numAtRisk":47},{"groupId":"EG001","numEvents":0,"numAffected":0,"numAtRisk":47},{"groupId":"EG002","numEvents":0,"numAffected":0,"numAtRisk":48},{"groupId":"EG003","numEvents":0,"numAffected":0,"numAtRisk":48}]},{"term":"Disturbance in attention","organSystem":"Nervous system disorders","sourceVocabulary":"MedDRA 26.1","assessmentType":"SYSTEMATIC_ASSESSMENT","stats":[{"groupId":"EG000","numEvents":1,"numAffected":1,"numAtRisk":47},{"groupId":"EG001","numEvents":0,"numAffected":0,"numAtRisk":47},{"groupId":"EG002","numEvents":0,"numAffected":0,"numAtRisk":48},{"groupId":"EG003","numEvents":0,"numAffected":0,"numAtRisk":48}]},{"term":"Dizziness","organSystem":"Nervous system disorders","sourceVocabulary":"MedDRA 26.1","assessmentType":"SYSTEMATIC_ASSESSMENT","stats":[{"groupId":"EG000","numEvents":2,"numAffected":2,"numAtRisk":47},{"groupId":"EG001","numEvents":7,"numAffected":6,"numAtRisk":47},{"groupId":"EG002","numEvents":4,"numAffected":4,"numAtRisk":48},{"groupId":"EG003","numEvents":2,"numAffected":2,"numAtRisk":48}]},{"term":"Dysgeusia","organSystem":"Nervous system disorders","sourceVocabulary":"MedDRA 26.1","assessmentType":"SYSTEMATIC_ASSESSMENT","stats":[{"groupId":"EG000","numEvents":1,"numAffected":1,"numAtRisk":47},{"groupId":"EG001","numEvents":2,"numAffected":2,"numAtRisk":47},{"groupId":"EG002","numEvents":0,"numAffected":0,"numAtRisk":48},{"groupId":"EG003","numEvents":1,"numAffected":1,"numAtRisk":48}]},{"term":"Headache","organSystem":"Nervous system disorders","sourceVocabulary":"MedDRA 26.1","assessmentType":"SYSTEMATIC_ASSESSMENT","stats":[{"groupId":"EG000","numEvents":3,"numAffected":3,"numAtRisk":47},{"groupId":"EG001","numEvents":7,"numAffected":6,"numAtRisk":47},{"groupId":"EG002","numEvents":4,"numAffected":3,"numAtRisk":48},{"groupId":"EG003","numEvents":5,"numAffected":5,"numAtRisk":48}]},{"term":"Hypoaesthesia","organSystem":"Nervous system disorders","sourceVocabulary":"MedDRA 26.1","assessmentType":"SYSTEMATIC_ASSESSMENT","stats":[{"groupId":"EG000","numEvents":1,"numAffected":1,"numAtRisk":47},{"groupId":"EG001","numEvents":0,"numAffected":0,"numAtRisk":47},{"groupId":"EG002","numEvents":0,"numAffected":0,"numAtRisk":48},{"groupId":"EG003","numEvents":2,"numAffected":2,"numAtRisk":48}]},{"term":"Lethargy","organSystem":"Nervous system disorders","sourceVocabulary":"MedDRA 26.1","assessmentType":"SYSTEMATIC_ASSESSMENT","stats":[{"groupId":"EG000","numEvents":0,"numAffected":0,"numAtRisk":47},{"groupId":"EG001","numEvents":0,"numAffected":0,"numAtRisk":47},{"groupId":"EG002","numEvents":2,"numAffected":1,"numAtRisk":48},{"groupId":"EG003","numEvents":0,"numAffected":0,"numAtRisk":48}]},{"term":"Lumbar radiculopathy","organSystem":"Nervous system disorders","sourceVocabulary":"MedDRA 26.1","assessmentType":"SYSTEMATIC_ASSESSMENT","stats":[{"groupId":"EG000","numEvents":0,"numAffected":0,"numAtRisk":47},{"groupId":"EG001","numEvents":0,"numAffected":0,"numAtRisk":47},{"groupId":"EG002","numEvents":0,"numAffected":0,"numAtRisk":48},{"groupId":"EG003","numEvents":1,"numAffected":1,"numAtRisk":48}]},{"term":"Migraine","organSystem":"Nervous system disorders","sourceVocabulary":"MedDRA 26.1","assessmentType":"SYSTEMATIC_ASSESSMENT","stats":[{"groupId":"EG000","numEvents":17,"numAffected":1,"numAtRisk":47},{"groupId":"EG001","numEvents":0,"numAffected":0,"numAtRisk":47},{"groupId":"EG002","numEvents":1,"numAffected":1,"numAtRisk":48},{"groupId":"EG003","numEvents":2,"numAffected":2,"numAtRisk":48}]},{"term":"Neuralgia","organSystem":"Nervous system disorders","sourceVocabulary":"MedDRA 26.1","assessmentType":"SYSTEMATIC_ASSESSMENT","stats":[{"groupId":"EG000","numEvents":1,"numAffected":1,"numAtRisk":47},{"groupId":"EG001","numEvents":0,"numAffected":0,"numAtRisk":47},{"groupId":"EG002","numEvents":0,"numAffected":0,"numAtRisk":48},{"groupId":"EG003","numEvents":0,"numAffected":0,"numAtRisk":48}]},{"term":"Neuritis","organSystem":"Nervous system disorders","sourceVocabulary":"MedDRA 26.1","assessmentType":"SYSTEMATIC_ASSESSMENT","stats":[{"groupId":"EG000","numEvents":1,"numAffected":1,"numAtRisk":47},{"groupId":"EG001","numEvents":0,"numAffected":0,"numAtRisk":47},{"groupId":"EG002","numEvents":0,"numAffected":0,"numAtRisk":48},{"groupId":"EG003","numEvents":0,"numAffected":0,"numAtRisk":48}]},{"term":"Paraesthesia","organSystem":"Nervous system disorders","sourceVocabulary":"MedDRA 26.1","assessmentType":"SYSTEMATIC_ASSESSMENT","stats":[{"groupId":"EG000","numEvents":2,"numAffected":2,"numAtRisk":47},{"groupId":"EG001","numEvents":0,"numAffected":0,"numAtRisk":47},{"groupId":"EG002","numEvents":0,"numAffected":0,"numAtRisk":48},{"groupId":"EG003","numEvents":0,"numAffected":0,"numAtRisk":48}]},{"term":"Presyncope","organSystem":"Nervous system disorders","sourceVocabulary":"MedDRA 26.1","assessmentType":"SYSTEMATIC_ASSESSMENT","stats":[{"groupId":"EG000","numEvents":0,"numAffected":0,"numAtRisk":47},{"groupId":"EG001","numEvents":1,"numAffected":1,"numAtRisk":47},{"groupId":"EG002","numEvents":0,"numAffected":0,"numAtRisk":48},{"groupId":"EG003","numEvents":0,"numAffected":0,"numAtRisk":48}]},{"term":"Radiculopathy","organSystem":"Nervous system disorders","sourceVocabulary":"MedDRA 26.1","assessmentType":"SYSTEMATIC_ASSESSMENT","stats":[{"groupId":"EG000","numEvents":1,"numAffected":1,"numAtRisk":47},{"groupId":"EG001","numEvents":0,"numAffected":0,"numAtRisk":47},{"groupId":"EG002","numEvents":0,"numAffected":0,"numAtRisk":48},{"groupId":"EG003","numEvents":0,"numAffected":0,"numAtRisk":48}]},{"term":"Sciatica","organSystem":"Nervous system disorders","sourceVocabulary":"MedDRA 26.1","assessmentType":"SYSTEMATIC_ASSESSMENT","stats":[{"groupId":"EG000","numEvents":2,"numAffected":2,"numAtRisk":47},{"groupId":"EG001","numEvents":0,"numAffected":0,"numAtRisk":47},{"groupId":"EG002","numEvents":1,"numAffected":1,"numAtRisk":48},{"groupId":"EG003","numEvents":0,"numAffected":0,"numAtRisk":48}]},{"term":"Somnolence","organSystem":"Nervous system disorders","sourceVocabulary":"MedDRA 26.1","assessmentType":"SYSTEMATIC_ASSESSMENT","stats":[{"groupId":"EG000","numEvents":0,"numAffected":0,"numAtRisk":47},{"groupId":"EG001","numEvents":0,"numAffected":0,"numAtRisk":47},{"groupId":"EG002","numEvents":1,"numAffected":1,"numAtRisk":48},{"groupId":"EG003","numEvents":0,"numAffected":0,"numAtRisk":48}]},{"term":"Syncope","organSystem":"Nervous system disorders","sourceVocabulary":"MedDRA 26.1","assessmentType":"SYSTEMATIC_ASSESSMENT","stats":[{"groupId":"EG000","numEvents":0,"numAffected":0,"numAtRisk":47},{"groupId":"EG001","numEvents":1,"numAffected":1,"numAtRisk":47},{"groupId":"EG002","numEvents":0,"numAffected":0,"numAtRisk":48},{"groupId":"EG003","numEvents":0,"numAffected":0,"numAtRisk":48}]},{"term":"Taste disorder","organSystem":"Nervous system disorders","sourceVocabulary":"MedDRA 26.1","assessmentType":"SYSTEMATIC_ASSESSMENT","stats":[{"groupId":"EG000","numEvents":0,"numAffected":0,"numAtRisk":47},{"groupId":"EG001","numEvents":3,"numAffected":3,"numAtRisk":47},{"groupId":"EG002","numEvents":1,"numAffected":1,"numAtRisk":48},{"groupId":"EG003","numEvents":0,"numAffected":0,"numAtRisk":48}]},{"term":"Tension headache","organSystem":"Nervous system disorders","sourceVocabulary":"MedDRA 26.1","assessmentType":"SYSTEMATIC_ASSESSMENT","stats":[{"groupId":"EG000","numEvents":1,"numAffected":1,"numAtRisk":47},{"groupId":"EG001","numEvents":0,"numAffected":0,"numAtRisk":47},{"groupId":"EG002","numEvents":0,"numAffected":0,"numAtRisk":48},{"groupId":"EG003","numEvents":1,"numAffected":1,"numAtRisk":48}]},{"term":"Tremor","organSystem":"Nervous system disorders","sourceVocabulary":"MedDRA 26.1","assessmentType":"SYSTEMATIC_ASSESSMENT","stats":[{"groupId":"EG000","numEvents":0,"numAffected":0,"numAtRisk":47},{"groupId":"EG001","numEvents":1,"numAffected":1,"numAtRisk":47},{"groupId":"EG002","numEvents":0,"numAffected":0,"numAtRisk":48},{"groupId":"EG003","numEvents":0,"numAffected":0,"numAtRisk":48}]},{"term":"Anxiety","organSystem":"Psychiatric disorders","sourceVocabulary":"MedDRA 26.1","assessmentType":"SYSTEMATIC_ASSESSMENT","stats":[{"groupId":"EG000","numEvents":2,"numAffected":2,"numAtRisk":47},{"groupId":"EG001","numEvents":1,"numAffected":1,"numAtRisk":47},{"groupId":"EG002","numEvents":0,"numAffected":0,"numAtRisk":48},{"groupId":"EG003","numEvents":1,"numAffected":1,"numAtRisk":48}]},{"term":"Depression","organSystem":"Psychiatric disorders","sourceVocabulary":"MedDRA 26.1","assessmentType":"SYSTEMATIC_ASSESSMENT","stats":[{"groupId":"EG000","numEvents":0,"numAffected":0,"numAtRisk":47},{"groupId":"EG001","numEvents":0,"numAffected":0,"numAtRisk":47},{"groupId":"EG002","numEvents":0,"numAffected":0,"numAtRisk":48},{"groupId":"EG003","numEvents":2,"numAffected":2,"numAtRisk":48}]},{"term":"Insomnia","organSystem":"Psychiatric disorders","sourceVocabulary":"MedDRA 26.1","assessmentType":"SYSTEMATIC_ASSESSMENT","stats":[{"groupId":"EG000","numEvents":1,"numAffected":1,"numAtRisk":47},{"groupId":"EG001","numEvents":0,"numAffected":0,"numAtRisk":47},{"groupId":"EG002","numEvents":1,"numAffected":1,"numAtRisk":48},{"groupId":"EG003","numEvents":1,"numAffected":1,"numAtRisk":48}]},{"term":"Major depression","organSystem":"Psychiatric disorders","sourceVocabulary":"MedDRA 26.1","assessmentType":"SYSTEMATIC_ASSESSMENT","stats":[{"groupId":"EG000","numEvents":0,"numAffected":0,"numAtRisk":47},{"groupId":"EG001","numEvents":0,"numAffected":0,"numAtRisk":47},{"groupId":"EG002","numEvents":0,"numAffected":0,"numAtRisk":48},{"groupId":"EG003","numEvents":1,"numAffected":1,"numAtRisk":48}]},{"term":"Dysuria","organSystem":"Renal and urinary disorders","sourceVocabulary":"MedDRA 26.1","assessmentType":"SYSTEMATIC_ASSESSMENT","stats":[{"groupId":"EG000","numEvents":0,"numAffected":0,"numAtRisk":47},{"groupId":"EG001","numEvents":1,"numAffected":1,"numAtRisk":47},{"groupId":"EG002","numEvents":0,"numAffected":0,"numAtRisk":48},{"groupId":"EG003","numEvents":2,"numAffected":2,"numAtRisk":48}]},{"term":"Microalbuminuria","organSystem":"Renal and urinary disorders","sourceVocabulary":"MedDRA 26.1","assessmentType":"SYSTEMATIC_ASSESSMENT","stats":[{"groupId":"EG000","numEvents":0,"numAffected":0,"numAtRisk":47},{"groupId":"EG001","numEvents":0,"numAffected":0,"numAtRisk":47},{"groupId":"EG002","numEvents":1,"numAffected":1,"numAtRisk":48},{"groupId":"EG003","numEvents":0,"numAffected":0,"numAtRisk":48}]},{"term":"Micturition urgency","organSystem":"Renal and urinary disorders","sourceVocabulary":"MedDRA 26.1","assessmentType":"SYSTEMATIC_ASSESSMENT","stats":[{"groupId":"EG000","numEvents":0,"numAffected":0,"numAtRisk":47},{"groupId":"EG001","numEvents":0,"numAffected":0,"numAtRisk":47},{"groupId":"EG002","numEvents":1,"numAffected":1,"numAtRisk":48},{"groupId":"EG003","numEvents":0,"numAffected":0,"numAtRisk":48}]},{"term":"Nephrolithiasis","organSystem":"Renal and urinary disorders","sourceVocabulary":"MedDRA 26.1","assessmentType":"SYSTEMATIC_ASSESSMENT","stats":[{"groupId":"EG000","numEvents":1,"numAffected":1,"numAtRisk":47},{"groupId":"EG001","numEvents":0,"numAffected":0,"numAtRisk":47},{"groupId":"EG002","numEvents":0,"numAffected":0,"numAtRisk":48},{"groupId":"EG003","numEvents":0,"numAffected":0,"numAtRisk":48}]},{"term":"Renal failure","organSystem":"Renal and urinary disorders","sourceVocabulary":"MedDRA 26.1","assessmentType":"SYSTEMATIC_ASSESSMENT","stats":[{"groupId":"EG000","numEvents":0,"numAffected":0,"numAtRisk":47},{"groupId":"EG001","numEvents":0,"numAffected":0,"numAtRisk":47},{"groupId":"EG002","numEvents":0,"numAffected":0,"numAtRisk":48},{"groupId":"EG003","numEvents":1,"numAffected":1,"numAtRisk":48}]},{"term":"Renal pain","organSystem":"Renal and urinary disorders","sourceVocabulary":"MedDRA 26.1","assessmentType":"SYSTEMATIC_ASSESSMENT","stats":[{"groupId":"EG000","numEvents":1,"numAffected":1,"numAtRisk":47},{"groupId":"EG001","numEvents":0,"numAffected":0,"numAtRisk":47},{"groupId":"EG002","numEvents":0,"numAffected":0,"numAtRisk":48},{"groupId":"EG003","numEvents":0,"numAffected":0,"numAtRisk":48}]},{"term":"Ureterolithiasis","organSystem":"Renal and urinary disorders","sourceVocabulary":"MedDRA 26.1","assessmentType":"SYSTEMATIC_ASSESSMENT","stats":[{"groupId":"EG000","numEvents":0,"numAffected":0,"numAtRisk":47},{"groupId":"EG001","numEvents":0,"numAffected":0,"numAtRisk":47},{"groupId":"EG002","numEvents":1,"numAffected":1,"numAtRisk":48},{"groupId":"EG003","numEvents":0,"numAffected":0,"numAtRisk":48}]},{"term":"Urinary incontinence","organSystem":"Renal and urinary disorders","sourceVocabulary":"MedDRA 26.1","assessmentType":"SYSTEMATIC_ASSESSMENT","stats":[{"groupId":"EG000","numEvents":0,"numAffected":0,"numAtRisk":47},{"groupId":"EG001","numEvents":0,"numAffected":0,"numAtRisk":47},{"groupId":"EG002","numEvents":1,"numAffected":1,"numAtRisk":48},{"groupId":"EG003","numEvents":0,"numAffected":0,"numAtRisk":48}]},{"term":"Urine odour abnormal","organSystem":"Renal and urinary disorders","sourceVocabulary":"MedDRA 26.1","assessmentType":"SYSTEMATIC_ASSESSMENT","stats":[{"groupId":"EG000","numEvents":0,"numAffected":0,"numAtRisk":47},{"groupId":"EG001","numEvents":1,"numAffected":1,"numAtRisk":47},{"groupId":"EG002","numEvents":0,"numAffected":0,"numAtRisk":48},{"groupId":"EG003","numEvents":0,"numAffected":0,"numAtRisk":48}]},{"term":"Benign prostatic hyperplasia","organSystem":"Reproductive system and breast disorders","sourceVocabulary":"MedDRA 26.1","assessmentType":"SYSTEMATIC_ASSESSMENT","stats":[{"groupId":"EG000","numEvents":0,"numAffected":0,"numAtRisk":20},{"groupId":"EG001","numEvents":0,"numAffected":0,"numAtRisk":21},{"groupId":"EG002","numEvents":0,"numAffected":0,"numAtRisk":19},{"groupId":"EG003","numEvents":1,"numAffected":1,"numAtRisk":21}]},{"term":"Breast cyst","organSystem":"Reproductive system and breast disorders","sourceVocabulary":"MedDRA 26.1","assessmentType":"SYSTEMATIC_ASSESSMENT","stats":[{"groupId":"EG000","numEvents":0,"numAffected":0,"numAtRisk":47},{"groupId":"EG001","numEvents":0,"numAffected":0,"numAtRisk":47},{"groupId":"EG002","numEvents":1,"numAffected":1,"numAtRisk":48},{"groupId":"EG003","numEvents":0,"numAffected":0,"numAtRisk":48}]},{"term":"Breast discomfort","organSystem":"Reproductive system and breast disorders","sourceVocabulary":"MedDRA 26.1","assessmentType":"SYSTEMATIC_ASSESSMENT","stats":[{"groupId":"EG000","numEvents":0,"numAffected":0,"numAtRisk":47},{"groupId":"EG001","numEvents":0,"numAffected":0,"numAtRisk":47},{"groupId":"EG002","numEvents":2,"numAffected":1,"numAtRisk":48},{"groupId":"EG003","numEvents":0,"numAffected":0,"numAtRisk":48}]},{"term":"Intermenstrual bleeding","organSystem":"Reproductive system and breast disorders","sourceVocabulary":"MedDRA 26.1","assessmentType":"SYSTEMATIC_ASSESSMENT","stats":[{"groupId":"EG000","numEvents":0,"numAffected":0,"numAtRisk":27},{"groupId":"EG001","numEvents":0,"numAffected":0,"numAtRisk":26},{"groupId":"EG002","numEvents":1,"numAffected":1,"numAtRisk":29},{"groupId":"EG003","numEvents":0,"numAffected":0,"numAtRisk":27}]},{"term":"Testicular pain","organSystem":"Reproductive system and breast disorders","sourceVocabulary":"MedDRA 26.1","assessmentType":"SYSTEMATIC_ASSESSMENT","stats":[{"groupId":"EG000","numEvents":0,"numAffected":0,"numAtRisk":20},{"groupId":"EG001","numEvents":0,"numAffected":0,"numAtRisk":21},{"groupId":"EG002","numEvents":0,"numAffected":0,"numAtRisk":19},{"groupId":"EG003","numEvents":1,"numAffected":1,"numAtRisk":21}]},{"term":"Vaginal haemorrhage","organSystem":"Reproductive system and breast disorders","sourceVocabulary":"MedDRA 26.1","assessmentType":"SYSTEMATIC_ASSESSMENT","stats":[{"groupId":"EG000","numEvents":0,"numAffected":0,"numAtRisk":27},{"groupId":"EG001","numEvents":0,"numAffected":0,"numAtRisk":26},{"groupId":"EG002","numEvents":1,"numAffected":1,"numAtRisk":29},{"groupId":"EG003","numEvents":0,"numAffected":0,"numAtRisk":27}]},{"term":"Vulvovaginal discomfort","organSystem":"Reproductive system and breast disorders","sourceVocabulary":"MedDRA 26.1","assessmentType":"SYSTEMATIC_ASSESSMENT","stats":[{"groupId":"EG000","numEvents":0,"numAffected":0,"numAtRisk":27},{"groupId":"EG001","numEvents":0,"numAffected":0,"numAtRisk":26},{"groupId":"EG002","numEvents":0,"numAffected":0,"numAtRisk":29},{"groupId":"EG003","numEvents":1,"numAffected":1,"numAtRisk":27}]},{"term":"Chronic obstructive pulmonary disease","organSystem":"Respiratory, thoracic and mediastinal disorders","sourceVocabulary":"MedDRA 26.1","assessmentType":"SYSTEMATIC_ASSESSMENT","stats":[{"groupId":"EG000","numEvents":0,"numAffected":0,"numAtRisk":47},{"groupId":"EG001","numEvents":0,"numAffected":0,"numAtRisk":47},{"groupId":"EG002","numEvents":2,"numAffected":2,"numAtRisk":48},{"groupId":"EG003","numEvents":0,"numAffected":0,"numAtRisk":48}]},{"term":"Cough","organSystem":"Respiratory, thoracic and mediastinal disorders","sourceVocabulary":"MedDRA 26.1","assessmentType":"SYSTEMATIC_ASSESSMENT","stats":[{"groupId":"EG000","numEvents":2,"numAffected":2,"numAtRisk":47},{"groupId":"EG001","numEvents":1,"numAffected":1,"numAtRisk":47},{"groupId":"EG002","numEvents":3,"numAffected":3,"numAtRisk":48},{"groupId":"EG003","numEvents":1,"numAffected":1,"numAtRisk":48}]},{"term":"Dyspnoea","organSystem":"Respiratory, thoracic and mediastinal disorders","sourceVocabulary":"MedDRA 26.1","assessmentType":"SYSTEMATIC_ASSESSMENT","stats":[{"groupId":"EG000","numEvents":1,"numAffected":1,"numAtRisk":47},{"groupId":"EG001","numEvents":1,"numAffected":1,"numAtRisk":47},{"groupId":"EG002","numEvents":0,"numAffected":0,"numAtRisk":48},{"groupId":"EG003","numEvents":0,"numAffected":0,"numAtRisk":48}]},{"term":"Nasal congestion","organSystem":"Respiratory, thoracic and mediastinal disorders","sourceVocabulary":"MedDRA 26.1","assessmentType":"SYSTEMATIC_ASSESSMENT","stats":[{"groupId":"EG000","numEvents":1,"numAffected":1,"numAtRisk":47},{"groupId":"EG001","numEvents":0,"numAffected":0,"numAtRisk":47},{"groupId":"EG002","numEvents":1,"numAffected":1,"numAtRisk":48},{"groupId":"EG003","numEvents":0,"numAffected":0,"numAtRisk":48}]},{"term":"Oropharyngeal pain","organSystem":"Respiratory, thoracic and mediastinal disorders","sourceVocabulary":"MedDRA 26.1","assessmentType":"SYSTEMATIC_ASSESSMENT","stats":[{"groupId":"EG000","numEvents":0,"numAffected":0,"numAtRisk":47},{"groupId":"EG001","numEvents":0,"numAffected":0,"numAtRisk":47},{"groupId":"EG002","numEvents":1,"numAffected":1,"numAtRisk":48},{"groupId":"EG003","numEvents":2,"numAffected":2,"numAtRisk":48}]},{"term":"Alopecia","organSystem":"Skin and subcutaneous tissue disorders","sourceVocabulary":"MedDRA 26.1","assessmentType":"SYSTEMATIC_ASSESSMENT","stats":[{"groupId":"EG000","numEvents":4,"numAffected":4,"numAtRisk":47},{"groupId":"EG001","numEvents":2,"numAffected":2,"numAtRisk":47},{"groupId":"EG002","numEvents":5,"numAffected":3,"numAtRisk":48},{"groupId":"EG003","numEvents":0,"numAffected":0,"numAtRisk":48}]},{"term":"Blister","organSystem":"Skin and subcutaneous tissue disorders","sourceVocabulary":"MedDRA 26.1","assessmentType":"SYSTEMATIC_ASSESSMENT","stats":[{"groupId":"EG000","numEvents":1,"numAffected":1,"numAtRisk":47},{"groupId":"EG001","numEvents":0,"numAffected":0,"numAtRisk":47},{"groupId":"EG002","numEvents":0,"numAffected":0,"numAtRisk":48},{"groupId":"EG003","numEvents":0,"numAffected":0,"numAtRisk":48}]},{"term":"Dermatitis contact","organSystem":"Skin and subcutaneous tissue disorders","sourceVocabulary":"MedDRA 26.1","assessmentType":"SYSTEMATIC_ASSESSMENT","stats":[{"groupId":"EG000","numEvents":0,"numAffected":0,"numAtRisk":47},{"groupId":"EG001","numEvents":0,"numAffected":0,"numAtRisk":47},{"groupId":"EG002","numEvents":1,"numAffected":1,"numAtRisk":48},{"groupId":"EG003","numEvents":0,"numAffected":0,"numAtRisk":48}]},{"term":"Ecchymosis","organSystem":"Skin and subcutaneous tissue disorders","sourceVocabulary":"MedDRA 26.1","assessmentType":"SYSTEMATIC_ASSESSMENT","stats":[{"groupId":"EG000","numEvents":0,"numAffected":0,"numAtRisk":47},{"groupId":"EG001","numEvents":1,"numAffected":1,"numAtRisk":47},{"groupId":"EG002","numEvents":0,"numAffected":0,"numAtRisk":48},{"groupId":"EG003","numEvents":0,"numAffected":0,"numAtRisk":48}]},{"term":"Eczema","organSystem":"Skin and subcutaneous tissue disorders","sourceVocabulary":"MedDRA 26.1","assessmentType":"SYSTEMATIC_ASSESSMENT","stats":[{"groupId":"EG000","numEvents":0,"numAffected":0,"numAtRisk":47},{"groupId":"EG001","numEvents":0,"numAffected":0,"numAtRisk":47},{"groupId":"EG002","numEvents":0,"numAffected":0,"numAtRisk":48},{"groupId":"EG003","numEvents":1,"numAffected":1,"numAtRisk":48}]},{"term":"Erythema","organSystem":"Skin and subcutaneous tissue disorders","sourceVocabulary":"MedDRA 26.1","assessmentType":"SYSTEMATIC_ASSESSMENT","stats":[{"groupId":"EG000","numEvents":1,"numAffected":1,"numAtRisk":47},{"groupId":"EG001","numEvents":2,"numAffected":1,"numAtRisk":47},{"groupId":"EG002","numEvents":0,"numAffected":0,"numAtRisk":48},{"groupId":"EG003","numEvents":0,"numAffected":0,"numAtRisk":48}]},{"term":"Intertrigo","organSystem":"Skin and subcutaneous tissue disorders","sourceVocabulary":"MedDRA 26.1","assessmentType":"SYSTEMATIC_ASSESSMENT","stats":[{"groupId":"EG000","numEvents":0,"numAffected":0,"numAtRisk":47},{"groupId":"EG001","numEvents":0,"numAffected":0,"numAtRisk":47},{"groupId":"EG002","numEvents":0,"numAffected":0,"numAtRisk":48},{"groupId":"EG003","numEvents":1,"numAffected":1,"numAtRisk":48}]},{"term":"Koilonychia","organSystem":"Skin and subcutaneous tissue disorders","sourceVocabulary":"MedDRA 26.1","assessmentType":"SYSTEMATIC_ASSESSMENT","stats":[{"groupId":"EG000","numEvents":0,"numAffected":0,"numAtRisk":47},{"groupId":"EG001","numEvents":0,"numAffected":0,"numAtRisk":47},{"groupId":"EG002","numEvents":0,"numAffected":0,"numAtRisk":48},{"groupId":"EG003","numEvents":1,"numAffected":1,"numAtRisk":48}]},{"term":"Photosensitivity reaction","organSystem":"Skin and subcutaneous tissue disorders","sourceVocabulary":"MedDRA 26.1","assessmentType":"SYSTEMATIC_ASSESSMENT","stats":[{"groupId":"EG000","numEvents":1,"numAffected":1,"numAtRisk":47},{"groupId":"EG001","numEvents":0,"numAffected":0,"numAtRisk":47},{"groupId":"EG002","numEvents":0,"numAffected":0,"numAtRisk":48},{"groupId":"EG003","numEvents":0,"numAffected":0,"numAtRisk":48}]},{"term":"Pruritus","organSystem":"Skin and subcutaneous tissue disorders","sourceVocabulary":"MedDRA 26.1","assessmentType":"SYSTEMATIC_ASSESSMENT","stats":[{"groupId":"EG000","numEvents":1,"numAffected":1,"numAtRisk":47},{"groupId":"EG001","numEvents":0,"numAffected":0,"numAtRisk":47},{"groupId":"EG002","numEvents":1,"numAffected":1,"numAtRisk":48},{"groupId":"EG003","numEvents":2,"numAffected":2,"numAtRisk":48}]},{"term":"Rash","organSystem":"Skin and subcutaneous tissue disorders","sourceVocabulary":"MedDRA 26.1","assessmentType":"SYSTEMATIC_ASSESSMENT","stats":[{"groupId":"EG000","numEvents":1,"numAffected":1,"numAtRisk":47},{"groupId":"EG001","numEvents":1,"numAffected":1,"numAtRisk":47},{"groupId":"EG002","numEvents":0,"numAffected":0,"numAtRisk":48},{"groupId":"EG003","numEvents":2,"numAffected":2,"numAtRisk":48}]},{"term":"Skin hyperpigmentation","organSystem":"Skin and subcutaneous tissue disorders","sourceVocabulary":"MedDRA 26.1","assessmentType":"SYSTEMATIC_ASSESSMENT","stats":[{"groupId":"EG000","numEvents":0,"numAffected":0,"numAtRisk":47},{"groupId":"EG001","numEvents":1,"numAffected":1,"numAtRisk":47},{"groupId":"EG002","numEvents":0,"numAffected":0,"numAtRisk":48},{"groupId":"EG003","numEvents":0,"numAffected":0,"numAtRisk":48}]},{"term":"Urticaria","organSystem":"Skin and subcutaneous tissue disorders","sourceVocabulary":"MedDRA 26.1","assessmentType":"SYSTEMATIC_ASSESSMENT","stats":[{"groupId":"EG000","numEvents":0,"numAffected":0,"numAtRisk":47},{"groupId":"EG001","numEvents":0,"numAffected":0,"numAtRisk":47},{"groupId":"EG002","numEvents":0,"numAffected":0,"numAtRisk":48},{"groupId":"EG003","numEvents":2,"numAffected":2,"numAtRisk":48}]},{"term":"Cyst removal","organSystem":"Surgical and medical procedures","sourceVocabulary":"MedDRA 26.1","assessmentType":"SYSTEMATIC_ASSESSMENT","stats":[{"groupId":"EG000","numEvents":0,"numAffected":0,"numAtRisk":47},{"groupId":"EG001","numEvents":1,"numAffected":1,"numAtRisk":47},{"groupId":"EG002","numEvents":0,"numAffected":0,"numAtRisk":48},{"groupId":"EG003","numEvents":0,"numAffected":0,"numAtRisk":48}]},{"term":"Eyelid cyst removal","organSystem":"Surgical and medical procedures","sourceVocabulary":"MedDRA 26.1","assessmentType":"SYSTEMATIC_ASSESSMENT","stats":[{"groupId":"EG000","numEvents":0,"numAffected":0,"numAtRisk":47},{"groupId":"EG001","numEvents":0,"numAffected":0,"numAtRisk":47},{"groupId":"EG002","numEvents":1,"numAffected":1,"numAtRisk":48},{"groupId":"EG003","numEvents":0,"numAffected":0,"numAtRisk":48}]},{"term":"Gastrointestinal endoscopic therapy","organSystem":"Surgical and medical procedures","sourceVocabulary":"MedDRA 26.1","assessmentType":"SYSTEMATIC_ASSESSMENT","stats":[{"groupId":"EG000","numEvents":0,"numAffected":0,"numAtRisk":47},{"groupId":"EG001","numEvents":1,"numAffected":1,"numAtRisk":47},{"groupId":"EG002","numEvents":0,"numAffected":0,"numAtRisk":48},{"groupId":"EG003","numEvents":0,"numAffected":0,"numAtRisk":48}]},{"term":"Hip arthroplasty","organSystem":"Surgical and medical procedures","sourceVocabulary":"MedDRA 26.1","assessmentType":"SYSTEMATIC_ASSESSMENT","stats":[{"groupId":"EG000","numEvents":0,"numAffected":0,"numAtRisk":47},{"groupId":"EG001","numEvents":0,"numAffected":0,"numAtRisk":47},{"groupId":"EG002","numEvents":0,"numAffected":0,"numAtRisk":48},{"groupId":"EG003","numEvents":1,"numAffected":1,"numAtRisk":48}]},{"term":"Knee arthroplasty","organSystem":"Surgical and medical procedures","sourceVocabulary":"MedDRA 26.1","assessmentType":"SYSTEMATIC_ASSESSMENT","stats":[{"groupId":"EG000","numEvents":0,"numAffected":0,"numAtRisk":47},{"groupId":"EG001","numEvents":0,"numAffected":0,"numAtRisk":47},{"groupId":"EG002","numEvents":1,"numAffected":1,"numAtRisk":48},{"groupId":"EG003","numEvents":0,"numAffected":0,"numAtRisk":48}]},{"term":"Large intestinal polypectomy","organSystem":"Surgical and medical procedures","sourceVocabulary":"MedDRA 26.1","assessmentType":"SYSTEMATIC_ASSESSMENT","stats":[{"groupId":"EG000","numEvents":0,"numAffected":0,"numAtRisk":47},{"groupId":"EG001","numEvents":2,"numAffected":1,"numAtRisk":47},{"groupId":"EG002","numEvents":0,"numAffected":0,"numAtRisk":48},{"groupId":"EG003","numEvents":0,"numAffected":0,"numAtRisk":48}]},{"term":"Nail operation","organSystem":"Surgical and medical procedures","sourceVocabulary":"MedDRA 26.1","assessmentType":"SYSTEMATIC_ASSESSMENT","stats":[{"groupId":"EG000","numEvents":1,"numAffected":1,"numAtRisk":47},{"groupId":"EG001","numEvents":0,"numAffected":0,"numAtRisk":47},{"groupId":"EG002","numEvents":0,"numAffected":0,"numAtRisk":48},{"groupId":"EG003","numEvents":0,"numAffected":0,"numAtRisk":48}]},{"term":"Skin neoplasm excision","organSystem":"Surgical and medical procedures","sourceVocabulary":"MedDRA 26.1","assessmentType":"SYSTEMATIC_ASSESSMENT","stats":[{"groupId":"EG000","numEvents":0,"numAffected":0,"numAtRisk":47},{"groupId":"EG001","numEvents":1,"numAffected":1,"numAtRisk":47},{"groupId":"EG002","numEvents":0,"numAffected":0,"numAtRisk":48},{"groupId":"EG003","numEvents":0,"numAffected":0,"numAtRisk":48}]},{"term":"Tendon sheath incision","organSystem":"Surgical and medical procedures","sourceVocabulary":"MedDRA 26.1","assessmentType":"SYSTEMATIC_ASSESSMENT","stats":[{"groupId":"EG000","numEvents":0,"numAffected":0,"numAtRisk":47},{"groupId":"EG001","numEvents":0,"numAffected":0,"numAtRisk":47},{"groupId":"EG002","numEvents":1,"numAffected":1,"numAtRisk":48},{"groupId":"EG003","numEvents":0,"numAffected":0,"numAtRisk":48}]},{"term":"Tooth extraction","organSystem":"Surgical and medical procedures","sourceVocabulary":"MedDRA 26.1","assessmentType":"SYSTEMATIC_ASSESSMENT","stats":[{"groupId":"EG000","numEvents":0,"numAffected":0,"numAtRisk":47},{"groupId":"EG001","numEvents":0,"numAffected":0,"numAtRisk":47},{"groupId":"EG002","numEvents":0,"numAffected":0,"numAtRisk":48},{"groupId":"EG003","numEvents":1,"numAffected":1,"numAtRisk":48}]},{"term":"Uterine polypectomy","organSystem":"Surgical and medical procedures","sourceVocabulary":"MedDRA 26.1","assessmentType":"SYSTEMATIC_ASSESSMENT","stats":[{"groupId":"EG000","numEvents":0,"numAffected":0,"numAtRisk":27},{"groupId":"EG001","numEvents":0,"numAffected":0,"numAtRisk":26},{"groupId":"EG002","numEvents":1,"numAffected":1,"numAtRisk":29},{"groupId":"EG003","numEvents":0,"numAffected":0,"numAtRisk":27}]},{"term":"Hot flush","organSystem":"Vascular disorders","sourceVocabulary":"MedDRA 26.1","assessmentType":"SYSTEMATIC_ASSESSMENT","stats":[{"groupId":"EG000","numEvents":0,"numAffected":0,"numAtRisk":47},{"groupId":"EG001","numEvents":1,"numAffected":1,"numAtRisk":47},{"groupId":"EG002","numEvents":0,"numAffected":0,"numAtRisk":48},{"groupId":"EG003","numEvents":0,"numAffected":0,"numAtRisk":48}]},{"term":"Hypertension","organSystem":"Vascular disorders","sourceVocabulary":"MedDRA 26.1","assessmentType":"SYSTEMATIC_ASSESSMENT","stats":[{"groupId":"EG000","numEvents":0,"numAffected":0,"numAtRisk":47},{"groupId":"EG001","numEvents":3,"numAffected":3,"numAtRisk":47},{"groupId":"EG002","numEvents":0,"numAffected":0,"numAtRisk":48},{"groupId":"EG003","numEvents":0,"numAffected":0,"numAtRisk":48}]},{"term":"Hypotension","organSystem":"Vascular disorders","sourceVocabulary":"MedDRA 26.1","assessmentType":"SYSTEMATIC_ASSESSMENT","stats":[{"groupId":"EG000","numEvents":1,"numAffected":1,"numAtRisk":47},{"groupId":"EG001","numEvents":1,"numAffected":1,"numAtRisk":47},{"groupId":"EG002","numEvents":0,"numAffected":0,"numAtRisk":48},{"groupId":"EG003","numEvents":0,"numAffected":0,"numAtRisk":48}]},{"term":"Orthostatic hypotension","organSystem":"Vascular disorders","sourceVocabulary":"MedDRA 26.1","assessmentType":"SYSTEMATIC_ASSESSMENT","stats":[{"groupId":"EG000","numEvents":2,"numAffected":2,"numAtRisk":47},{"groupId":"EG001","numEvents":0,"numAffected":0,"numAtRisk":47},{"groupId":"EG002","numEvents":0,"numAffected":0,"numAtRisk":48},{"groupId":"EG003","numEvents":0,"numAffected":0,"numAtRisk":48}]},{"term":"Peripheral coldness","organSystem":"Vascular disorders","sourceVocabulary":"MedDRA 26.1","assessmentType":"SYSTEMATIC_ASSESSMENT","stats":[{"groupId":"EG000","numEvents":0,"numAffected":0,"numAtRisk":47},{"groupId":"EG001","numEvents":0,"numAffected":0,"numAtRisk":47},{"groupId":"EG002","numEvents":1,"numAffected":1,"numAtRisk":48},{"groupId":"EG003","numEvents":0,"numAffected":0,"numAtRisk":48}]},{"term":"Raynaud's phenomenon","organSystem":"Vascular disorders","sourceVocabulary":"MedDRA 26.1","assessmentType":"SYSTEMATIC_ASSESSMENT","stats":[{"groupId":"EG000","numEvents":0,"numAffected":0,"numAtRisk":47},{"groupId":"EG001","numEvents":1,"numAffected":1,"numAtRisk":47},{"groupId":"EG002","numEvents":0,"numAffected":0,"numAtRisk":48},{"groupId":"EG003","numEvents":0,"numAffected":0,"numAtRisk":48}]}]},"moreInfoModule":{"certainAgreement":{"piSponsorEmployee":false,"restrictionType":"GT60","restrictiveAgreement":true},"pointOfContact":{"title":"Chief Medical Officer","organization":"Eli Lilly and Company","email":"ClinicalTrials.gov@lilly.com","phone":"800-545-5979"}}},"documentSection":{"largeDocumentModule":{"largeDocs":[{"typeAbbrev":"Prot","hasProtocol":true,"hasSap":false,"hasIcf":false,"label":"Study Protocol","date":"2020-11-19","uploadDate":"2024-12-06T03:55","filename":"Prot_000.pdf","size":1949170},{"typeAbbrev":"SAP","hasProtocol":false,"hasSap":true,"hasIcf":false,"label":"Statistical Analysis Plan","date":"2024-01-25","uploadDate":"2024-12-06T03:57","filename":"SAP_001.pdf","size":1077799}]}},"derivedSection":{"miscInfoModule":{"versionHolder":"2025-08-29","submissionTracking":{"firstMcpInfo":{"postDateStruct":{"date":"2025-01-01","type":"ACTUAL"}}}},"conditionBrowseModule":{"meshes":[{"id":"D065626","term":"Non-alcoholic Fatty Liver Disease"}],"ancestors":[{"id":"D005234","term":"Fatty Liver"},{"id":"D008107","term":"Liver Diseases"},{"id":"D004066","term":"Digestive System Diseases"}]},"interventionBrowseModule":{"meshes":[{"id":"D000098860","term":"Tirzepatide"},{"id":"D058110","term":"Counterfeit Drugs"}],"ancestors":[{"id":"D000067757","term":"Glucagon-Like Peptide-1 Receptor"},{"id":"D000067756","term":"Glucagon-Like Peptide Receptors"},{"id":"D043562","term":"Receptors, G-Protein-Coupled"},{"id":"D011956","term":"Receptors, Cell Surface"},{"id":"D008565","term":"Membrane Proteins"},{"id":"D011506","term":"Proteins"},{"id":"D000602","term":"Amino Acids, Peptides, and Proteins"},{"id":"D011964","term":"Receptors, Gastrointestinal Hormone"},{"id":"D018000","term":"Receptors, Peptide"},{"id":"D000078742","term":"Substandard Drugs"},{"id":"D004364","term":"Pharmaceutical Preparations"}]}},"hasResults":true}
